amenity,name,website,opening_hour,closing_hour,lat,lon,open_dawn,open_day,open_dusk,open_night
bar,Sky Bar,http://www.skybar.ro/,12:00,22:00,44.4572887,26.095949,1,1,1,0
bar,Pe baricade,https://instagram.com/pe_baricade?igshid=1bw5mktrfs942,10:00,22:00,44.4249344,26.1073688,1,1,1,0
bar,Freddo,https://freddo.ro/,10:00,05:00,44.4308236,26.0997496,1,1,1,1
bar,Nomad Skybar,https://www.nomadskybar.ro/,16:00,04:00,44.4303849,26.1000843,0,0,1,1
bar,Paradise Club,https://paradise-club.ro/,11:00,23:00,44.4307326,26.100788,1,1,1,0
bar,CBD Tapas Bar,http://www.legalzic.ro/,12:00,22:00,44.4320826,26.0973468,1,1,1,0
bar,ATIPICO,https://www.facebook.com/p/Atipico-Victoriei-61552794144309/,10:00,22:00,44.4336959,26.0978613,1,1,1,0
bar,Silence pub,https://www.facebook.com/SilenceCafePub/,12:00,00:00,44.4496106,26.0964879,1,1,1,1
bar,Trei Betivi,http://www.treibetivi.ro/,16:00,02:00,44.4417357,26.1095398,0,0,1,1
bar,Wine Mood,https://winemood.ro/,15:00,00:00,44.4184987,26.1126572,0,0,1,1
bar,Trio Bar & Lounge,https://www.reach-menu.com/trio,12:00,01:00,44.4332685,26.0986606,1,1,1,1
bar,Bar de cartier,https://www.facebook.com/restaurant.de.cartier.tineretului,12:00,00:00,44.4685959,26.0350327,1,1,1,1
bar,Corks Cozy Bar,https://corks.ro/?utm_source=gbp&utm_medium=organic&utm_campaign=dcalocal,12:00,00:00,44.4319782,26.1025219,1,1,1,1
bar,English Bar,https://atheneepalace.intercontinental.com/dining/english-bar/,18:00,02:00,44.4410379,26.0955107,0,0,1,1
bar,The Drunken Lords,https://drunkenlords.ro/,18:00,05:00,44.4323396,26.1009244,0,0,1,1
bar,Altfel,https://altfel.com.ro/,12:00,00:00,44.4312812,26.0999145,1,1,1,1
bar,Hugo - Bar & Lounge,https://hugobarandlounge.ro/,12:00,02:00,44.4331056,26.0983311,1,1,1,1
bar,Caffe No. 35,https://www.instagram.com/cafe_no35/,10:00,21:00,44.4340991,26.0737644,1,1,1,0
bar,QP Pub,http://www.qp-pub.ro/,10:00,22:00,44.4395516,26.1039133,1,1,1,0
bar,BarFly,https://barflybuc.wordpress.com/,15:00,06:00,44.429127,26.1099435,1,0,1,1
bar,Hidden - The Social Space,https://www.facebook.com/hidden.com.ro,16:00,22:00,44.4153695,26.1196731,0,1,1,0
bar,1974 Niște Domni și Fiii,https://instagram.com/nistedomnisifiii1974?igshid=OGQ5ZDc2ODk2ZA==&utm_source=qr,10:00,22:00,44.4307357,26.1018712,1,1,1,0
bar,Alan Dala,https://www.facebook.com/AlandalaCafe/?locale=ro_RO,12:00,00:00,44.4476748,26.1060993,1,1,1,1
bar,Lokal,https://www.facebook.com/LOKAL/,17:00,00:00,44.4479183,26.1041131,0,0,1,1
bar,Macaz Bar Teatru Coop,https://m.facebook.com/macazcoop/,07:00,21:00,44.4348951,26.10818,1,1,1,0
bar,Interbelic Victoria,https://interbelic.ro/#rec519117026,21:00,05:00,44.4331141,26.0965625,0,0,1,1
bar,La Baracă,https://www.facebook.com/RestaurantLaBaraca/,11:00,22:00,44.4560769,26.1157695,1,1,1,0
bar,Bistro Burghez,https://www.facebook.com/BistroBurghez.oficial/?_rdr,12:00,00:00,44.4052918,26.1725136,1,1,1,1
bar,DanDana,https://www.facebook.com/BucurestiDanDana/,12:00,23:00,44.4214915,26.0684569,1,1,1,0
bar,Zambro,https://www.zambro.ro/,10:00,23:00,44.3917957,26.1095009,1,1,1,0
bar,Legère,https://www.facebook.com/legere.ro/,08:00,03:00,44.4361545,26.1073172,1,1,1,1
bar,Linea / Closer to the moon,https://booklinea.me/,08:00,23:00,44.4330536,26.0968479,1,1,1,0
bar,Tag Aperitivo Bar,https://tagbar.ro/,09:00,02:00,44.4322056,26.100021,1,1,1,1
bar,Abel's Wine Bar,https://www.abelswinebar.ro/,14:00,00:00,44.4300616,26.0973551,0,0,1,1
bar,Ota,https://www.spottedbylocals.com/bucharest/ota/,19:00,00:00,44.4323557,26.0792579,0,0,1,1
bar,Soto,https://www.facebook.com/sotocafebar,13:00,22:00,44.4411799,26.0826655,0,1,1,0
bar,Sing Tagma,https://www.facebook.com/photo/?fbid=122108214146342972&set=p.122108214146342972,09:00,00:00,44.443374,26.0967795,1,1,1,1
bar,Times Cocktail Bar,https://www.facebook.com/timesbucharest/?pnref=story.unseen-section,19:00,05:00,44.4321226,26.1008621,0,0,1,1
bar,Nova Lounge & Hookah,https://novalounge.ro/,14:00,00:00,44.4385077,26.116469,0,0,1,1
bar,BEAT bar umanist,https://www.facebook.com/people/BEAT-bar-umanist/100045069469744/#,16:00,02:00,44.4395291,26.1081062,0,0,1,1
bar,The Blank Lounge & Bar,https://www.marmorosch.com,09:00,21:00,44.4335916,26.0990016,1,1,1,0
bar,The Vault,https://www.marmorosch.com,18:00,01:00,44.4336979,26.0989841,0,0,1,1
bar,Boogie Bar,http://boogie-bar.ro,14:00,00:00,44.4407899,26.1159546,0,0,1,1
bar,Amethyst Sky Bar,https://amethystskybar.ro/,14:00,23:00,44.4266716,26.1155656,0,1,1,0
bar,Terasa Oasis,https://terasaoasis.ro/,10:00,22:00,44.419107,26.0679591,1,1,1,0
bar,WineOut,https://www.facebook.com/wineoutbar/,14:00,23:00,44.4437516,26.1085297,0,1,1,0
bar,La Spritz,https://instagram.com/laspritzwinebar?igshid=YmMyMTA2M2Y=,12:00,23:00,44.4299941,26.0999023,1,1,1,0
bar,Shoteria,https://www.shoteria.ro/,18:00,03:00,44.4301868,26.1006161,0,0,1,1
bar,Buddha Lounge,https://www.facebook.com/BuddhaLoungeBucharest/,12:00,22:00,44.4305283,26.100542,1,1,1,0
bar,The Black Rose,https://www.facebook.com/people/The-Black-Rose/100087468043101/,11:00,21:00,44.4304629,26.0991212,1,1,1,0
bar,Piana Vyshnia - Vișinotecă,https://www.fest.lviv.ua/en/restaurants/drunkcherry/,14:00,02:00,44.4309061,26.1015156,0,0,1,1
bar,SIP Bucharest Cocktail Bar,https://sipbucharest.ro,17:00,00:00,44.4304545,26.102184,0,0,1,1
bar,Fix me a drink,https://fixmad.com/,17:00,01:00,44.4356679,26.0940381,0,0,1,1
bar,Porto Te Amo,https://zilesinopti.ro/locuri/porto-te-amo-wine-bar-coffee-shop/,10:00,22:00,44.420583,26.1502968,1,1,1,0
bar,L'Arpège,https://www.alain-passard.com/,07:00,22:00,44.4760452,26.0700302,1,1,1,0
bar,Balkon Resto Garden,https://www.facebook.com/balkonrestogarden/?locale=ro_RO,10:00,22:00,44.4426555,26.0940146,1,1,1,0
bar,Nativ,https://restaurantnativ.ro/,08:00,21:00,44.4424341,26.0940358,1,1,1,0
bar,Ioco,https://www.facebook.com/profile.php?id=100093902603896#,12:00,22:00,44.4434087,26.092775,1,1,1,0
bar,Bar Ubuntu,https://terasaubuntu.ro/meniu-ubuntu/,09:00,01:00,44.4136188,26.1178617,1,1,1,1
bar,Flair Angel,https://barsolutions.ro/,18:00,01:00,44.4215462,26.0869523,0,0,1,1
bar,Wicked Bar,https://wicked-bar.ro/,08:00,22:00,44.4377395,26.112265,1,1,1,0
bar,Echoes Bar,http://www.echoes.haus/,10:00,05:00,44.4379732,26.1061386,1,1,1,1
bar,Gradina Mantuleasa,http://thedrunkenfalcon.eatbu.com/,11:00,22:00,44.4373098,26.1143923,1,1,1,0
bar,BAR TON,https://bar-ton.com/,10:00,20:00,44.4372175,26.096537,1,1,1,0
bar,I-auzi una,https://www.facebook.com/iauziuna?rdid=TJcWljiy7sn2ZK1Y&share_url=https%3A%2F%2Fwww.facebook.com%2Fshare%2F62ezdvp9mfXPEhu1%2F#,16:00,23:00,44.4304913,26.1047293,0,1,1,0
bar,Rainbow,https://m.facebook.com/RainbowCoffeeAndMore/,11:00,02:00,44.4288728,26.1343751,1,1,1,1
bar,Ironic Taproom,https://www.instagram.com/ironictaproom/?hl=en,12:00,00:00,44.4339934,26.0950726,1,1,1,1
bar,Teoria,http://teoria.bar/,18:00,01:00,44.4384333,26.1060492,0,0,1,1
cafe,5 to go,https://fivetogo.ro/,07:00,20:00,44.4207301,26.1789437,1,1,1,0
cafe,Tucano Coffee Guatemala,https://tucanocoffee.com/ro/,08:00,00:00,44.4478401,26.0996827,1,1,1,1
cafe,Starbucks,https://www.starbucksromania.ro/,10:00,00:00,44.5061406,26.0890289,1,1,1,1
cafe,Gio Cafe,https://www.giocafe.ro/,09:00,00:00,44.4241875,26.1293555,1,1,1,1
cafe,Puerto Cafe,https://ialoc.ro/restaurante-bucuresti/puerto-cafe-rezervari-1300,09:00,00:00,44.4244673,26.1298935,1,1,1,1
cafe,Bernschutz and Co,https://www.bernschutz.com/,09:00,02:00,44.4345748,26.1019805,1,1,1,1
cafe,Starbucks,https://www.starbucksromania.ro/,09:00,02:00,44.4291065,26.0349494,1,1,1,1
cafe,Klauss Coffee Shop,https://www.instagram.com/klauss_coffee_shop/,08:00,00:00,44.440315,26.10022,1,1,1,1
cafe,Isoletta,https://isoletta.ro/,12:00,23:00,44.4778722,26.0850025,1,1,1,0
cafe,Tress Cafe,https://www.facebook.com/Tress-CaffeLounge-180875141990658/,10:00,22:00,44.4276707,26.1309008,1,1,1,0
cafe,Starbucks,https://www.starbucksromania.ro/,11:00,23:00,44.4212112,26.1269894,1,1,1,0
cafe,Starbucks,https://www.starbucksromania.ro/,08:00,22:00,44.4523982,26.0828114,1,1,1,0
cafe,Caffe Bordo,http://www.bordopub.ro/,07:00,21:00,44.4438944,26.0540724,1,1,1,0
cafe,Grădina Verona,http://www.cafeverona.ro/contact/,09:00,22:00,44.4431735,26.0998115,1,1,1,0
cafe,Ganesha Caffe,https://ganeshacaffevictoriei.ro/,08:00,22:00,44.4333575,26.0980458,1,1,1,0
cafe,Bemolle Cafe,https://www.bemollecafe.ro/,11:00,03:00,44.4331273,26.0985322,1,1,1,1
cafe,Valea Regilor,https://ialoc.ro/restaurante-bucuresti/valea-regilor-rezervari-814,08:00,02:00,44.4333322,26.0985443,1,1,1,1
cafe,Ruby,http://rubyconcept.com/,10:00,23:00,44.4408935,26.0952487,1,1,1,0
cafe,Cascara,https://www.cascaracoffee.ro/,09:00,01:00,44.4440333,26.0925108,1,1,1,1
cafe,Tosteria Italiana,https://www.tosteriaitaliana.ro/,13:00,05:00,44.444158,26.0923911,0,0,1,1
cafe,Roastelier,https://burgershow.ro/,08:00,22:00,44.4664717,26.0671851,1,1,1,0
cafe,Nuba Cafe,https://www.chocolat.com.ro/,08:00,22:00,44.4619221,26.0946729,1,1,1,0
cafe,Glamour Caffe,http://www.glamourrestro.ro/,00:00,23:59,44.4934334,26.0796819,1,1,1,1
cafe,TinaR Prêt à Café,https://www.pretacafe.ro/,09:00,20:00,44.4348504,26.0955053,1,1,1,0
cafe,Starbucks,https://www.starbucksromania.ro/,09:00,02:00,44.3942575,26.1219256,1,1,1,1
cafe,K53 Cafe,https://restaurantguru.com/K53-Cafe-Bucharest,08:00,00:00,44.4343881,26.081467,1,1,1,1
cafe,B4 Market,https://b4market.ro/,08:00,23:00,44.4642155,26.0959066,1,1,1,0
cafe,Turkish Sweets Duman,https://turkishsweetsduman.ro/,12:00,22:00,44.4299077,26.1346554,1,1,1,0
cafe,Pink Cafe,https://www.tripadvisor.com/Restaurant_Review-g294458-d17476119-Reviews-Pink_Cafe_Lounge-Bucharest.html,09:00,00:00,44.4297836,26.1344326,1,1,1,1
cafe,5 to go,https://fivetogo.ro/,13:00,02:00,44.4409088,26.1009295,0,0,1,1
cafe,Trofic,https://www.facebook.com/TroficFood/,12:00,22:00,44.4363299,26.0944063,1,1,1,0
cafe,Jessie's,https://www.jessiescaffe.ro/,09:00,00:00,44.4251109,26.0462261,1,1,1,1
cafe,Tutti Cafe,http://tuttibistro.ro/,10:00,23:00,44.4781025,26.1035182,1,1,1,0
cafe,Boss Lounge,https://www.tripadvisor.com/Restaurant_Review-g294458-d24096132-Reviews-Boss_Lounge_Victoriei-Bucharest.html,12:00,02:00,44.4331718,26.0981,1,1,1,1
cafe,5 to go,https://fivetogo.ro/,07:00,20:00,44.4950598,26.0779382,1,1,1,0
cafe,ORYGYNS Specialty coffee,https://www.instagram.com/ORYGYNS.coffee/#,08:00,19:00,44.4439365,26.0993171,1,1,1,0
cafe,FROG,https://www.f-r-o-g.com/,08:00,19:00,44.4381522,26.1077816,1,1,1,0
cafe,MURALE,https://www.instagram.com/murale.cafe/?hl=en,09:00,22:00,44.4630619,26.0951506,1,1,1,0
cafe,Two Minute,https://www.facebook.com/twominutes.ro/,08:00,18:00,44.461506,26.099421,1,1,1,0
cafe,Miau,https://www.facebook.com/cafemiau,12:00,00:00,44.4274158,26.1207086,1,1,1,1
cafe,J'ai Bistrot,https://www.jaibistrot.ro/,12:00,01:00,44.4448065,26.0857354,1,1,1,1
cafe,Doncafé Brasserie,https://www.facebook.com/DoncafeBrasserie/,12:00,23:00,44.5136961,26.1320514,1,1,1,0
cafe,Loka,https://www.facebook.com/LokaLounge/,09:00,02:00,44.4301888,26.1351361,1,1,1,1
cafe,Origo Coffee Shop,https://origocoffee.ro/,12:00,00:00,44.4332107,26.0952613,1,1,1,1
cafe,5 to go,https://fivetogo.ro/,07:00,20:00,44.4250192,26.0459256,1,1,1,0
cafe,Lente Arcului,https://lente.ro/en/welcome/,11:00,00:00,44.4377981,26.1105972,1,1,1,1
cafe,Manufaktura,https://manufakturacafe.ro/aviatorilor/,08:00,22:00,44.4429171,26.1522088,1,1,1,0
cafe,Lolly Pop Lounge Cafe,https://www.lollypop.ro,10:00,01:00,44.4298032,26.1346335,1,1,1,1
cafe,Shiva,https://www.tripadvisor.com/Restaurant_Review-g294458-d8014912-Reviews-Shiva_Coffee_Tea-Bucharest.html,12:00,02:00,44.4481055,26.1061594,1,1,1,1
cafe,Starbucks,https://www.starbucks.ro/,12:00,00:00,44.4293001,26.1018607,1,1,1,1
cafe,Ganesha Caffe,https://ganeshacaffevictoriei.ro/,13:00,02:00,44.4569453,26.105714,0,0,1,1
cafe,5 to go,https://fivetogo.ro/,07:00,20:00,44.4339659,26.076873,1,1,1,0
cafe,Camera din Față,https://cameradinfata.ro/,19:00,22:00,44.4442369,26.0966255,0,0,1,0
cafe,5 to go,https://fivetogo.ro/,07:00,20:00,44.4810866,26.116355,1,1,1,0
cafe,Boba chaya,https://www.facebook.com/Chayabobatea/,10:00,22:00,44.4442289,26.0974641,1,1,1,0
cafe,5 to go,https://fivetogo.ro/,07:00,20:00,44.4469604,26.0821114,1,1,1,0
cafe,5 to go,https://fivetogo.ro/,07:00,20:00,44.4670726,26.1559373,1,1,1,0
cafe,Sfinx Espresso Bar,https://www.facebook.com/p/Sfinx-Espresso-Bar-61556185455687/,08:00,17:00,44.4338735,26.1046151,1,1,1,0
cafe,Kahve Dünyası,https://www.kahvedunyasi.com/,09:00,23:00,44.4199852,26.1262596,1,1,1,0
cafe,High Class Cafe & Lounge,https://highclasscoffeelounge.ro/,09:00,01:00,44.4239776,26.1296231,1,1,1,1
cafe,5 to go,https://fivetogo.ro/,13:00,22:00,44.3819512,26.1516104,0,1,1,0
cafe,Starbucks,http://www.starbucksromania.ro/,10:00,22:00,44.4494099,26.0881461,1,1,1,0
cafe,Riviera cafe,https://riviera.cafe/,11:00,00:00,44.4329074,26.1450798,1,1,1,1
cafe,The Gate Cafe,http://www.thegate.ro/,12:00,23:00,44.4716378,26.0725991,1,1,1,0
cafe,ich&fee,https://www.facebook.com/hothotstuff?ref=aymt_homepage_panel#,07:00,18:00,44.434306,26.0683783,1,1,1,0
cafe,Infinitea,https://infinitea.ro/,12:00,23:00,44.4278175,26.0719962,1,1,1,0
cafe,Rainbow Cofee & more,https://www.facebook.com/RainbowCoffeeAndMore/?_rdr,08:00,02:00,44.3885113,26.1182432,1,1,1,1
cafe,5 to go,https://fivetogo.ro/,07:00,20:00,44.4156298,26.1106508,1,1,1,0
cafe,The Urbanist,http://www.theurbanist.ro,09:00,19:00,44.429519,26.1017986,1,1,1,0
cafe,Vol Cafe,https://www.facebook.com/volcafero/?locale=ro_RO,11:00,02:00,44.4330673,26.0980941,1,1,1,1
cafe,Starbucks,http://www.starbucksromania.ro/,11:00,22:00,44.4786384,26.1026031,1,1,1,0
cafe,5 to go,https://fivetogo.ro/,07:00,20:00,44.3692575,26.1452021,1,1,1,0
cafe,Costadoro Coffee Lab,https://www.tripadvisor.com/Restaurant_Review-g294458-d21184056-Reviews-Costadoro_Caffe_Promenada-Bucharest.html,10:00,23:00,44.478526,26.1032376,1,1,1,0
cafe,Snakes & Wizzards,https://www.facebook.com/SnakesandWizards,17:00,00:00,44.4396446,26.1308624,0,0,1,1
cafe,Kahve Dünyası,https://www.kahvedunyasi.com/,11:00,23:00,44.4290434,26.0345355,1,1,1,0
cafe,Nespresso,https://www.nespresso.com/ro/ro/nespresso-boutique-afi-cotroceni?utm_source=gbp&utm_medium=organic&utm_campaign=boutique-afi-cotroceni,16:00,04:00,44.4629775,26.092473,0,0,1,1
cafe,The Coffee Factory,https://m.facebook.com/contegocafe/,10:00,23:00,44.4346882,26.0888104,1,1,1,0
cafe,Degusteria Francesca,https://www.degusteriafrancesca.ro/,10:00,22:00,44.4479654,26.1061599,1,1,1,0
cafe,STEAM Cafe,https://facebook.com/SteamCoffeeShop,11:00,23:00,44.4651184,26.084976,1,1,1,0
cafe,5 to go,https://fivetogo.ro/,07:00,22:00,44.5521567,26.0721576,1,1,1,0
cafe,Gloria Jean's,https://www.gloriajeans.ro/,08:00,22:00,44.3940959,26.122393,1,1,1,0
cafe,5 to go,https://fivetogo.ro/,12:00,23:00,44.4653323,26.0881702,1,1,1,0
cafe,5 to go,https://fivetogo.ro/,07:00,20:00,44.4402635,26.0856479,1,1,1,0
cafe,5 to go,https://fivetogo.ro/,07:00,20:00,44.4339686,26.0900326,1,1,1,0
cafe,Coclinart,https://www.facebook.com/Coolinart-453247931675363/,12:00,21:00,44.4446225,26.0924152,1,1,1,0
cafe,Vine & coffee beans,https://www.instagram.com/winecoffeebeans/#,08:00,20:00,44.4133583,26.1057316,1,1,1,0
cafe,Cafetăria Sebastian,https://cafetaria.ro/,09:00,23:00,44.4137607,26.0726231,1,1,1,0
cafe,5 to go,https://fivetogo.ro/,07:00,20:00,44.4453941,26.0592534,1,1,1,0
cafe,BOB Coffee Lab,http://www.bob.coffee/,00:00,23:59,44.4654867,26.0854991,1,1,1,1
cafe,Artichoke Social House,https://artichoke.coffee/,10:00,01:00,44.4379156,26.0964859,1,1,1,1
cafe,Beans & Dots,https://beansanddots.ro/,08:00,18:00,44.4357057,26.0940185,1,1,1,0
cafe,5 to go,https://fivetogo.ro/,07:00,20:00,44.4236182,26.0412143,1,1,1,0
cafe,Starbucks,https://www.starbucksromania.ro/,08:00,16:00,44.4349757,26.0538328,1,1,0,0
cafe,5 to go,https://fivetogo.ro/,07:00,20:00,44.4831084,26.1198108,1,1,1,0
cafe,Starbucks,https://www.starbucksromania.ro/,10:00,02:00,44.4317558,26.0535218,1,1,1,1
cafe,Starbucks,http://www.starbucksromania.ro/,08:00,17:00,44.5139552,26.1268866,1,1,1,0
cafe,5 to go,https://fivetogo.ro/,07:00,20:00,44.4346972,26.1001808,1,1,1,0
cafe,5 to go,https://fivetogo.ro/,07:00,20:00,44.4272063,26.0346011,1,1,1,0
cafe,5 to go,https://fivetogo.ro/,07:00,20:00,44.4201753,26.1037743,1,1,1,0
cafe,5 to go,https://fivetogo.ro/,07:00,20:00,44.4345534,26.0410288,1,1,1,0
cafe,5 to go,https://fivetogo.ro/,07:00,20:00,44.3688369,26.1519454,1,1,1,0
cafe,The Coffee Shop,https://www.ecoffeeshop.ro/,08:00,20:00,44.4339566,26.0997832,1,1,1,0
cafe,5 to go,https://fivetogo.ro/,07:00,20:00,44.4870727,26.037966,1,1,1,0
cafe,5 to go,https://fivetogo.ro/,07:00,20:00,44.4857099,26.0224874,1,1,1,0
cafe,5 to go,https://fivetogo.ro/,11:00,23:50,44.4826246,26.122039,1,1,1,1
cafe,5 to go,https://fivetogo.ro/,10:00,20:00,44.4460715,26.0974284,1,1,1,0
cafe,Gourmet Coffee Collection,https://gourmetcoffeeshop.ro/,12:00,21:00,44.4472994,26.097644,1,1,1,0
cafe,Bandit,https://www.instagram.com/bandit.coffee.shop/#,10:00,16:00,44.4367839,26.0951302,1,1,0,0
cafe,Burger Van,http://www.boomburger.ro/,17:00,20:00,44.4366074,26.095001,0,1,1,0
cafe,5 to go,https://fivetogo.ro/,10:00,23:00,44.4364498,26.0947232,1,1,1,0
cafe,Vanfruct,https://www.instagram.com/vanfruct_coffeeshop/,08:00,18:00,44.4370912,26.0961457,1,1,1,0
cafe,French Bakery,https://www.frenchbakery.ro/,09:00,00:00,44.4374902,26.0973789,1,1,1,1
cafe,5 to go,https://fivetogo.ro/,11:00,23:00,44.4422476,26.106811,1,1,1,0
cafe,Ivy,https://ivy-specialty-coffee.business.site/,18:00,07:00,44.4363792,26.1057314,1,0,1,1
cafe,Mad Goat,https://www.facebook.com/madgoatcff/,12:00,22:00,44.4298007,26.0979098,1,1,1,0
cafe,Cofetăria LUSH,https://www.lushevents.ro/,09:00,21:00,44.4514921,26.120689,1,1,1,0
cafe,Mancave,https://www.facebook.com/mancave.playground/,09:00,22:00,44.4401414,26.0547475,1,1,1,0
cafe,Level Up,https://levelupfood.ro/,12:00,00:00,44.4346318,26.0403975,1,1,1,1
cafe,Level UP Speciality Coffee,specialitycoffee.ro,07:00,19:00,44.3702545,26.1455649,1,1,1,0
cafe,5 to go,https://fivetogo.ro/,07:00,20:00,44.3253865,26.1766839,1,1,1,0
cafe,Cooperativa Frufru,http://www.frufru.ro/,10:00,22:00,44.4772773,26.0715994,1,1,1,0
cafe,Coppa Coffee & Wine Bar,https://www.facebook.com/coppacoffeewine/?locale=ro_RO,12:00,00:00,44.4518383,26.0819792,1,1,1,1
cafe,5 to go,https://fivetogo.ro/,07:00,20:00,44.4304057,26.1071604,1,1,1,0
cafe,Meron,https://meron.ro/,08:00,20:00,44.4348249,26.0945793,1,1,1,0
cafe,5 to go,https://fivetogo.ro/,07:00,20:00,44.4395738,26.1354254,1,1,1,0
cafe,Starbucks,https://www.starbucksromania.ro/,13:00,02:00,44.4453706,26.0625288,0,0,1,1
cafe,5 to go,https://fivetogo.ro/,12:00,00:00,44.4171814,26.0356812,1,1,1,1
cafe,m60,https://m60cafe.ro/,10:00,06:00,44.443218,26.0967136,1,1,1,1
cafe,Forma Coffee,https://m.facebook.com/FORMAbucharest/,12:00,01:00,44.4337331,26.1010277,1,1,1,1
cafe,The Coffee Shop,https://ecoffeeshop.ro,12:00,00:00,44.4517933,26.0836382,1,1,1,1
cafe,5 to go,https://fivetogo.ro/,07:00,20:00,44.433847,25.9537369,1,1,1,0
cafe,Cereal crunch,https://cerealcrunch.ro/,10:00,02:00,44.4297503,26.0939695,1,1,1,1
cafe,So Coffee,https://www.socoffee.com/ro/,07:00,21:00,44.4446558,26.0598609,1,1,1,0
cafe,14th Lane,http://14thlane.ro/,10:00,22:00,44.4449444,26.0597572,1,1,1,0
cafe,Zissou,https://facebook.com/zissoucoffeeshop/,10:00,23:00,44.4337742,26.0777925,1,1,1,0
cafe,NINE BAR coffeeshop,https://www.tripadvisor.com/Restaurant_Review-g294458-d23576495-Reviews-NINE_BAR_Coffee_Shop-Bucharest.html,08:00,18:00,44.4329655,26.0703363,1,1,1,0
cafe,5 to go,https://fivetogo.ro/,07:00,20:00,44.4422092,26.1570128,1,1,1,0
cafe,Starbucks,http://www.starbucksromania.ro/,12:00,22:00,44.4419153,26.1519615,1,1,1,0
cafe,Ted's Coffee Co.,https://tedscoffeecompany.com/,09:00,23:00,44.44629,26.0743938,1,1,1,0
cafe,Origo,https://origocoffee.ro/,07:00,20:00,44.461243,26.0938475,1,1,1,0
cafe,Tucano Coffee,https://tucanocoffee.com,08:00,00:00,44.4288324,26.0521465,1,1,1,1
cafe,5 to go,https://fivetogo.ro/,07:00,20:00,44.3767747,26.1062994,1,1,1,0
cafe,Coffee Makers Romania,https://www.coffeemakers.ro/,08:00,17:00,44.4326412,26.0532646,1,1,1,0
cafe,La Vita e Velo,https://lavitaevelo.ro/,10:00,20:00,44.4336261,26.1009182,1,1,1,0
cafe,Utopia Coffee Bar,https://www.facebook.com/profile.php?id=100063104687925&eid=ARBLFkmbQQ4NZAIwgFtD6i1IOnT_mvEOsk9Vk4jdXcNyJEt2sLpYcCbIB0SHMLokuxVfSZvekUDnEdac&hc_ref=ARTgoy824yLAeKPN_CYUKUw03aqFqVXyVCuX3IrgdAKAYXQGSr8VTPvra_HGIJF6_J0&fref=tag&__xts__[0]=68.ARC-g-D4kxJWEHekM4IKu-fyFnXV4Vm4mubcjfuCKIcUW-3TFX8zAoNVH5d9MRDKKPjnxc9sr-uPPEbhpM25q8qw-tHGnn40cx0IF7yOykYcRpngCUwZ261W-xcEXAO_m1_Ow04DAB2X7BBdtjZLZzKy9xlPYDniJQGLu6QEkloXUPQ4ey8pAd0qZ8TmLlHbRlxtb3pkbp90w72zn5QobgoUg3vEvoAG2HHD3agADO6y5XJceEKC_cFF-JZRFwiU0IzBImA2x5iDjdusD0R1LMBu-Dm4ZA#,08:00,18:00,44.468224,26.0908775,1,1,1,0
cafe,Saint Roastery Speciality Coffee,http://www.saintroastery.ro/,12:00,17:00,44.4514036,26.0783669,1,1,1,0
cafe,Guido,https://guido.ro/,08:00,19:00,44.4466181,26.1134376,1,1,1,0
cafe,Dose Cafe,https://dosecafe.ro/index.php/menu/%E2%86%97,13:00,22:00,44.4502723,26.0993269,0,1,1,0
cafe,Drip Coffee,https://drip.ro/,08:00,17:00,44.4216257,26.0959524,1,1,1,0
cafe,First Coffee,https://www.facebook.com/FirstCoffeeBacau/,10:00,22:00,44.4330216,26.1038526,1,1,1,0
cafe,Kyut Social,https://www.instagram.com/kyut_social/,07:00,23:00,44.4418147,26.0946704,1,1,1,0
cafe,20 grams,https://20gr.coffee/,07:00,18:00,44.433332,26.1162829,1,1,1,0
cafe,Twenty Eight,https://www.facebook.com/twentyeightcaffee/,08:00,19:00,44.4373695,26.095554,1,1,1,0
cafe,Atipic,http://restaurant-atipic.ro/,08:00,16:00,44.4496966,26.0960811,1,1,0,0
cafe,Black Habit,https://www.blackhabit.ro/,07:00,17:00,44.4451194,26.0842887,1,1,1,0
cafe,Steam Coffee,https://www.facebook.com/SteamCoffeeShop,07:00,19:00,44.4468579,26.0947641,1,1,1,0
cafe,Orygyns Speciality Coffee,https://www.instagram.com/ORYGYNS.coffee,16:00,01:00,44.4800156,26.1004705,0,0,1,1
cafe,Plantini,https://www.plantini.ro/,08:00,16:00,44.478635,26.09421,1,1,0,0
cafe,Work's Café,https://www.instagram.com/workscoffeeshop/,07:00,17:00,44.4632184,26.0845083,1,1,1,0
cafe,Emozia,http://www.emozia.ro/,09:00,23:00,44.4293668,26.1029265,1,1,1,0
cafe,Starbucks,https://www.starbucksromania.ro/,12:00,00:00,44.5101102,26.0869446,1,1,1,1
cafe,Londonhome,https://www.facebook.com/londohome#,15:00,00:00,44.4405962,26.1035871,0,0,1,1
cafe,Gradina Uverturii,https://www.facebook.com/UverturiiGarden/,08:00,19:00,44.4367155,26.0333554,1,1,1,0
cafe,5 to go,https://fivetogo.ro/,00:00,23:59,44.4288956,26.1541328,1,1,1,1
cafe,Uzina Coffee,https://uzinacoffee.ro/,08:00,23:00,44.4435224,26.0939114,1,1,1,0
cafe,5 to go,https://fivetogo.ro/,07:00,20:00,44.4113933,26.1967828,1,1,1,0
cafe,5 to go,https://fivetogo.ro/,07:00,20:00,44.3862864,26.138089,1,1,1,0
cafe,Uzina,http://www.uzinacoffee.ro/,12:00,20:00,44.4435653,26.0942598,1,1,1,0
cafe,5 to go,https://fivetogo.ro/,07:00,20:00,44.4525761,26.1056806,1,1,1,0
cafe,Vrei ceva bun,https://www.facebook.com/vreicevabun/?locale=ro_RO,10:00,00:00,44.4235884,26.0412253,1,1,1,1
cafe,5 to go,https://fivetogo.ro/,07:00,20:00,44.4342737,26.0522021,1,1,1,0
cafe,The Host,https://thehostrestaurant.ro/,10:00,00:00,44.432723,26.1389298,1,1,1,1
cafe,Boiler Coffee Shop,https://boilercoffee.com/,07:00,19:00,44.4329454,26.1387929,1,1,1,0
cafe,5 to go,https://fivetogo.ro/,10:00,21:00,44.434182,26.0159204,1,1,1,0
cafe,Ana Baking Co.,https://www.anabaking.ro/,09:00,23:00,44.4195756,26.1267665,1,1,1,0
cafe,Jos Palaria,https://jospalariacafe.ro/,09:00,00:00,44.4345627,26.1015004,1,1,1,1
cafe,Ana Baking Co.,https://www.anabaking.ro,09:00,22:00,44.4280288,26.0348392,1,1,1,0
cafe,5 to go,https://fivetogo.ro/,07:00,20:00,44.4373906,26.0992894,1,1,1,0
cafe,Ganesha Caffe,https://ganeshacaffevictoriei.ro/,13:00,02:00,44.4667788,26.0879209,0,0,1,1
cafe,Cofetăria Victoria,https://casa-victoria.ro/,08:00,20:00,44.4662538,26.0647284,1,1,1,0
cafe,5 to go,https://fivetogo.ro/,07:00,20:00,44.4381774,25.9570105,1,1,1,0
cafe,The Coffee House,https://www.facebook.com/p/Coffee-House-100072678630527/,09:00,22:00,44.4224224,26.0909531,1,1,1,0
cafe,5 to go,https://fivetogo.ro/,07:00,20:00,44.4390594,26.183911,1,1,1,0
cafe,Tucano Coffee,https://www.tucanocoffee.com/,12:00,22:00,44.4346704,26.0999357,1,1,1,0
cafe,18CTEA,http://www.18ctea.ro/,08:00,18:00,44.4380669,26.097493,1,1,1,0
cafe,Jule,https://www.instagram.com/alextwojule_forever?igsh=MWwzc3JhYTRjdWJoag==,12:00,22:00,44.4355632,26.098965,1,1,1,0
cafe,Ted’s Coffee,https://tedscoffeecompany.com/,09:00,22:00,44.4061773,26.2779858,1,1,1,0
cafe,Mikel,https://mikelcoffee.com/,16:00,05:00,44.4215677,26.1496615,0,0,1,1
cafe,Ted's Coffee,https://www.tedscoffeecompany.com/,14:00,23:00,44.420259,26.150055,0,1,1,0
cafe,5 to go,https://fivetogo.ro/,07:00,20:00,44.408503,26.1396175,1,1,1,0
cafe,The Harp Bakery,https://theharp.ro/,08:00,00:00,44.4255665,26.103423,1,1,1,1
cafe,5 to go,https://fivetogo.ro/,07:00,20:00,44.4369784,26.1706776,1,1,1,0
cafe,5 to go,https://fivetogo.ro/,12:00,22:00,44.4306551,26.0969624,1,1,1,0
cafe,Ted's Coffee Co,https://www.tedscoffeecompany.com/,12:00,23:00,44.4148928,26.1048057,1,1,1,0
cafe,Cofetăria Sara,http://www.cofetariasara.ro/,11:00,23:00,44.3731995,26.1501633,1,1,1,0
cafe,5 to go,https://fivetogo.ro/,07:00,20:00,44.4378339,26.113748,1,1,1,0
cafe,5 to go,https://fivetogo.ro/,07:00,20:00,44.3875832,26.1176606,1,1,1,0
cafe,5 to go,https://fivetogo.ro/,07:00,20:00,44.4408854,26.0925184,1,1,1,0
cafe,5 to go,https://fivetogo.ro/,12:00,23:00,44.4348833,26.1071024,1,1,1,0
cafe,5 to go,https://fivetogo.ro/,07:00,20:00,44.4377753,26.1021354,1,1,1,0
cafe,5 to go,https://fivetogo.ro/,07:00,20:00,44.3879775,26.1095742,1,1,1,0
cafe,Manufaktura,https://manufakturacafe.ro/,00:00,23:59,44.5083145,26.0894145,1,1,1,1
cafe,5 to go,https://fivetogo.ro/,10:00,22:00,44.5034706,25.9899235,1,1,1,0
cafe,5 to go,https://fivetogo.ro/,07:00,20:00,44.4448823,26.0490991,1,1,1,0
cafe,5 to go,https://fivetogo.ro/,07:00,20:00,44.4441308,26.1195339,1,1,1,0
cafe,Crocant,https://www.crocant.ro,12:00,01:00,44.4470813,26.0940145,1,1,1,1
cafe,5 to go,https://fivetogo.ro/,07:00,20:00,44.4509527,26.1189916,1,1,1,0
cafe,5 to go,https://fivetogo.ro/,09:00,00:00,44.390259,26.1243994,1,1,1,1
cafe,Cofee Ink,https://www.instagram.com/coffeeinkshop/?hl=en,11:00,22:00,44.4443338,26.1288011,1,1,1,0
cafe,5 to go,https://fivetogo.ro/,07:00,20:00,44.3969012,26.1094595,1,1,1,0
cafe,5 to go,https://fivetogo.ro/,11:00,20:00,44.4247832,26.0717683,1,1,1,0
cafe,5 to go,https://fivetogo.ro/,11:00,20:00,44.537527,26.0959683,1,1,1,0
cafe,5 to go,https://fivetogo.ro/,10:00,22:00,44.4533263,26.0468984,1,1,1,0
cafe,5 to go,https://fivetogo.ro/,07:00,20:00,44.4121682,26.1267342,1,1,1,0
cafe,5 to go,https://fivetogo.ro/,07:00,20:00,44.4293932,26.1385854,1,1,1,0
cafe,5 to go,https://fivetogo.ro/,12:00,00:00,44.4233538,26.1773414,1,1,1,1
cafe,5 to go,https://fivetogo.ro/,07:00,20:00,44.4446397,26.0986966,1,1,1,0
cafe,5 to go,https://fivetogo.ro/,12:00,23:00,44.3493256,26.0315598,1,1,1,0
cafe,5 to go,https://fivetogo.ro/,11:00,00:00,44.4433604,26.092827,1,1,1,1
cafe,5 to go,https://fivetogo.ro/,07:00,20:00,44.3614008,26.1367567,1,1,1,0
cafe,5 to go,https://fivetogo.ro/,07:00,20:00,44.4726447,26.0560514,1,1,1,0
cafe,5 to go,https://fivetogo.ro/,07:00,20:00,44.3994161,26.0445145,1,1,1,0
cafe,5 to go,https://fivetogo.ro/,07:00,20:00,44.421202,26.1637511,1,1,1,0
cafe,5 to go,https://fivetogo.ro/,07:00,20:00,44.4359848,25.9831299,1,1,1,0
cafe,5 to go,https://fivetogo.ro/,10:00,20:00,44.3800013,26.0992583,1,1,1,0
cafe,STEAM,https://facebook.com/SteamCoffeeShop,00:00,23:59,44.4652963,26.0858394,1,1,1,1
cafe,5 to go,https://fivetogo.ro/,07:00,20:00,44.4313951,26.0057188,1,1,1,0
cafe,5 to go,https://fivetogo.ro/,12:00,22:00,44.3736376,26.150165,1,1,1,0
cafe,5 to go,https://fivetogo.ro/,07:00,20:00,44.4384205,26.1393075,1,1,1,0
cafe,Ted's Coffee,https://www.tedscoffeecompany.com/,12:00,22:00,44.4523284,26.1301101,1,1,1,0
cafe,5 to go,https://fivetogo.ro/,07:00,20:00,44.4417457,25.9869657,1,1,1,0
cafe,hai la CAFEA,https://www.facebook.com/hailacafeacoffeeshop/?locale=ro_RO,07:00,23:00,44.445991,26.1354389,1,1,1,0
cafe,5 to go,https://fivetogo.ro/,07:00,20:00,44.4361248,26.0475061,1,1,1,0
cafe,Chocoloco,https://chocoloco.ro/,11:00,23:00,44.4301659,26.099933,1,1,1,0
cafe,Eshte,https://www.eshte.ro/meniu/,08:00,16:00,44.4331882,26.1010492,1,1,0,0
cafe,5 to go,https://fivetogo.ro/,07:00,20:00,44.4367858,26.0340645,1,1,1,0
cafe,5 to go,https://fivetogo.ro/,07:00,20:00,44.4397684,26.0266617,1,1,1,0
cafe,Sifon Cafe,https://sifoncafe.eatbu.com/?lang=en,09:00,16:00,44.3796448,26.166307,1,1,0,0
cafe,5 to go,https://fivetogo.ro/,16:00,02:00,44.4450972,26.1318924,0,0,1,1
cafe,God's Coffee,https://www.facebook.com/Gods-Coffee-520885458309512/,10:00,05:00,44.4427175,26.1482583,1,1,1,1
cafe,5 to go,https://fivetogo.ro/,07:00,20:00,44.4207363,26.0664371,1,1,1,0
cafe,5 to go,https://fivetogo.ro/,07:00,20:00,44.3700075,26.1405232,1,1,1,0
cafe,5 to go,https://fivetogo.ro/,07:00,23:00,44.4425722,26.1694018,1,1,1,0
cafe,5 to go,https://fivetogo.ro/,07:00,20:00,44.3793497,26.1355563,1,1,1,0
cafe,OKFEA,https://okfea.ro/,07:00,19:00,44.4423075,26.1570902,1,1,1,0
cafe,Bari5ta,https://www.facebook.com/BARI5TA/,07:00,18:00,44.4802381,26.0706353,1,1,1,0
cafe,5 to go,https://fivetogo.ro/,07:00,20:00,44.4335317,26.0358954,1,1,1,0
cafe,Sagakura,https://www.sagakurabucharest.com/,10:00,22:00,44.4524056,26.0812395,1,1,1,0
cafe,ADESSO,http://www.adesso.ro/,10:00,22:00,44.4568442,26.0801645,1,1,1,0
cafe,5 to go,https://fivetogo.ro/,07:00,20:00,44.4348517,26.0875168,1,1,1,0
cafe,5 to go,https://fivetogo.ro/,07:00,20:00,44.409653,26.1783898,1,1,1,0
cafe,Citrick,https://www.citrick.ro/,08:00,17:00,44.4387322,26.104192,1,1,1,0
cafe,5 to go,https://fivetogo.ro/,10:00,00:00,44.4518624,26.0800997,1,1,1,1
cafe,Caffe Saccaria,770188799,12:00,22:00,44.4414443,26.0980655,1,1,1,0
cafe,Tucano Coffee,https://www.tucanocoffee.com/,11:00,00:00,44.4415325,26.0949792,1,1,1,1
cafe,Cofftail's,http://www.cofftails.ro/,11:00,22:00,44.4421541,26.0942982,1,1,1,0
cafe,Okfea,https://okfea.ro/,12:00,01:00,44.4433366,26.0928527,1,1,1,1
cafe,La Maison du Gout,https://www.frenchbakery.ro/,09:00,21:00,44.4439525,26.0925885,1,1,1,0
cafe,5 to go,https://fivetogo.ro/,07:00,20:00,44.4113433,26.1733417,1,1,1,0
cafe,5 to go,https://fivetogo.ro/,07:00,20:00,44.4365282,26.0847184,1,1,1,0
cafe,5 to go,https://fivetogo.ro/,07:00,20:00,44.3886418,26.0929025,1,1,1,0
cafe,BOB Coffee Lab,https://bob.coffee/,08:00,19:00,44.5080227,26.0898561,1,1,1,0
cafe,Ted's Coffee Co.,https://tedscoffeecompany.com/locatie/teds-coffee-co-bucuresti-enayati-medical-center/,10:00,00:00,44.501266,26.068447,1,1,1,1
cafe,Isetta Bar,https://bmw-bavaria.ro/baneasa/,10:00,17:00,44.5014236,26.0794478,1,1,1,0
cafe,5 to go,https://fivetogo.ro/,07:00,20:00,44.4009165,26.1437638,1,1,1,0
cafe,5 to go,https://fivetogo.ro/,07:00,20:00,44.5365326,26.060649,1,1,1,0
cafe,5 to go,https://fivetogo.ro/,12:00,00:00,44.4834065,26.0413562,1,1,1,1
cafe,5 to go,https://fivetogo.ro/,07:00,20:00,44.3633796,26.1520922,1,1,1,0
cafe,5 to go,https://fivetogo.ro/,07:00,20:00,44.430687,26.1124215,1,1,1,0
cafe,5 to go,https://fivetogo.ro/,07:00,20:00,44.4129767,26.1144943,1,1,1,0
cafe,Manufaktura,https://manufakturacafe.ro/,08:00,21:00,44.4280558,26.0351301,1,1,1,0
cafe,Rio Juice,https://www.riojuiceromania.com/,10:00,18:00,44.4417159,26.0951183,1,1,1,0
cafe,5 to go,https://fivetogo.ro/,09:00,20:00,44.443145,26.0523244,1,1,1,0
cafe,5 to go,https://fivetogo.ro/,07:00,20:00,44.4298533,26.1357092,1,1,1,0
cafe,Sara Green,https://saragreen.ro/,08:00,20:00,44.4504195,26.0893551,1,1,1,0
cafe,5 to go,https://fivetogo.ro/,07:00,20:00,44.3848226,26.1302704,1,1,1,0
cafe,5 to go,https://fivetogo.ro/,07:00,20:00,44.4320095,26.1371158,1,1,1,0
cafe,5 to go,https://fivetogo.ro/,07:00,20:00,44.4440816,26.1171803,1,1,1,0
cafe,6 to go,https://fivetogo.ro/,07:00,20:00,44.4450789,26.1010363,1,1,1,0
cafe,STEAM Coffee Shop,www.instagram.com/steam.coffee.shop,13:00,00:00,44.4531332,26.1090372,0,0,1,1
cafe,Oma Speciality Coffee,https://www.facebook.com/people/Oma-Coffee-Shop/100091846385658/?_rdr,08:00,16:00,44.4397967,26.113893,1,1,0,0
cafe,Plug In Coffee,https://www.plug-in.ro/,08:00,17:00,44.3712094,26.148591,1,1,1,0
cafe,Mitzu,https://stradale.ro/mitzu/,08:00,16:00,44.4735429,26.0551314,1,1,0,0
cafe,5 to go,https://fivetogo.ro/,08:00,22:00,44.4157706,26.0461438,1,1,1,0
cafe,5 to go,https://fivetogo.ro/,07:00,18:00,44.4531253,26.1088634,1,1,1,0
cafe,High Heels Cafe,https://www.facebook.com/highheelscafe/,08:00,22:00,44.4607882,26.0946761,1,1,1,0
cafe,Red Café,https://redscafe.ro/,07:00,17:00,44.4470295,26.0975857,1,1,1,0
cafe,B17 CoffeeLab,https://b17coffeelab.ro/,08:00,17:00,44.4387012,26.1041296,1,1,1,0
cafe,Sweet Concept,https://sweetconcept.ro,08:00,21:00,44.4409238,26.0566104,1,1,1,0
cafe,Sip Sip,https://www.instagram.com/sipsip_socialplace/,08:00,17:00,44.4182958,26.1129948,1,1,1,0
cafe,Baristo,https://www.facebook.com/baristro/,08:00,17:00,44.4178525,26.0964901,1,1,1,0
cafe,Ted's Coffee Co.,https://tedscoffeecompany.com,11:00,22:00,44.4346671,26.0883903,1,1,1,0
cafe,5 to go,https://fivetogo.ro/,19:00,02:00,44.4080039,26.2036957,0,0,1,1
cafe,5 to go,https://fivetogo.ro/,07:00,17:00,44.4341968,26.1026922,1,1,1,0
cafe,Cofee Station,https://www.facebook.com/coffestationcoltea,09:00,21:00,44.433948,26.1050078,1,1,1,0
cafe,5 to go,https://fivetogo.ro/,11:00,22:00,44.3791908,26.1279803,1,1,1,0
cafe,5 to go,https://fivetogo.ro/,11:00,22:00,44.4336684,26.0212814,1,1,1,0
cafe,Love You Choux,http://instagram.com/loveyouchoux,09:00,22:00,44.4413996,26.0979627,1,1,1,0
cafe,Koffeine,http://www.koffeine.ro/,08:00,19:00,44.4166966,26.0642065,1,1,1,0
cafe,Ted's Coffee,https://www.tedscoffeecompany.com/,09:00,20:00,44.427158,26.0626079,1,1,1,0
cafe,Cafeteca,https://cafeteca.ro/,07:00,21:00,44.4344452,26.0904858,1,1,1,0
cafe,Perpedes Coffee,https://www.facebook.com/PerpedesCoffee/,08:00,21:00,44.3744425,26.1195865,1,1,1,0
cafe,Boiler x Guido,http://www.boilercoffee.com/,10:00,17:00,44.4492073,26.0883176,1,1,1,0
cafe,Go Veggie,http://www.goveggie.ro/,12:00,22:00,44.4450436,26.1144713,1,1,1,0
cafe,Vina Tea,https://www.facebook.com/Vina.Tea22,11:00,22:00,44.4380731,26.1013784,1,1,1,0
cafe,Ted's Coffee Co.,https://www.tedscoffeecompany.com/,12:00,01:00,44.4802921,26.1035337,1,1,1,1
cafe,Stretto Plug In,https://www.plug-in.ro/,08:00,20:00,44.4831301,26.0920884,1,1,1,0
cafe,DoubleIn Coffee Shop,https://www.instagram.com/doubleshot.coffee,10:00,22:00,44.423974,26.0910516,1,1,1,0
cafe,Gluten Glory,https://glutenglory.ro/,10:00,22:00,44.44958,26.1295459,1,1,1,0
cafe,Mitzu Creamy & Famous,https://www.facebook.com/mitzucoffeeshop/,09:00,22:00,44.4351813,26.0535453,1,1,1,0
cafe,Savoury,https://savoury-events.ro/,10:00,00:00,44.4266833,26.0288807,1,1,1,1
cafe,5 to go,https://fivetogo.ro/,08:00,21:00,44.4129556,26.1628602,1,1,1,0
cafe,Zodiac Cafe,https://www.aficotroceni.ro/brands/food-drinks/zodiac/,10:00,22:00,44.4292902,26.0539679,1,1,1,0
cafe,5 to go,https://fivetogo.ro/,07:00,22:00,44.4103711,26.0779682,1,1,1,0
cafe,Awake,https://www.facebook.com/awakecoffeeph/?locale=ro_RO,10:00,22:00,44.4388362,26.1210697,1,1,1,0
cafe,5 to go,https://fivetogo.ro/,10:00,05:00,44.4292402,26.1024664,1,1,1,1
cafe,F190,https://www.facebook.com/F190coffee/,08:00,16:00,44.4470405,26.1005339,1,1,0,0
cafe,5 to go,https://fivetogo.ro/,09:00,23:00,44.4481398,26.0620052,1,1,1,0
cafe,Social Neighbours,https://www.instagram.com/social_neighbours/,11:00,00:00,44.438686,26.163537,1,1,1,1
cafe,The Cup,https://instagram.com/thecup_specialitycoffee?igshid=MzRlODBiNWFlZA==,10:00,23:00,44.4372309,26.1586837,1,1,1,0
cafe,5 to go,https://fivetogo.ro/,09:00,00:00,44.3608532,26.1230484,1,1,1,1
cafe,Amicii,http://casaanver.ro/,10:00,23:00,44.362557,26.1516513,1,1,1,0
cafe,Temple of Brewzeus,https://www.instagram.com/temple_of_brewzeus,09:00,23:00,44.4339046,26.0950543,1,1,1,0
cafe,7 Stories,http://www.instagram.com/7stories_coffeestudio,09:00,07:00,44.4635551,26.1041612,1,1,1,1
cafe,Manila Coffee,https://www.facebook.com/p/Manila-Coffee-100092602201998/,08:00,20:00,44.4444125,26.0755762,1,1,1,0
cafe,MABO,https://www.mabo.coffee/,08:00,18:00,44.3691433,26.1245448,1,1,1,0
cafe,JUST BLVCK COFFEE,https://just.blvck-coffee.ro/,07:00,18:00,44.4127723,26.1141068,1,1,1,0
cafe,COFFEE in 30 SECONDS,https://www.facebook.com/p/Coffee-in-30-SECONDS-100068632960761/,08:00,17:00,44.4129286,26.1102008,1,1,1,0
cafe,5 to go,https://fivetogo.ro/,09:00,22:00,44.4324387,26.1402463,1,1,1,0
cafe,Plug In Coffee,https://www.plug-in.ro/,10:00,22:00,44.3710468,26.1571886,1,1,1,0
cafe,Ted's Coffee Co.,https://tedscoffeecompany.com/locatie/pipera-hermes/,10:00,22:00,44.4810086,26.1134563,1,1,1,0
cafe,5 To Go,https://fivetogo.ro/,10:00,22:00,44.3929731,26.1235745,1,1,1,0
cafe,Rainbow cofee & more,https://www.facebook.com/RainbowCoffeeAndMore/?_rdr,08:00,02:00,44.400474,26.1013377,1,1,1,1
cafe,Loom 68,https://www.loom68.com/,08:00,18:00,44.4250753,26.1228505,1,1,1,0
cafe,Cafeneaua ART-AN-TE,https://www.art-an-te.com/,09:00,21:00,44.43766372,26.10122488,1,1,1,0
cafe,Miau Cafe,https://miaucafe.ro/,00:00,21:00,44.4215202,26.1093065,1,1,1,1
cafe,TED'S Cofee.,https://tedscoffeecompany.com/,08:00,21:00,44.4292333,26.0961404,1,1,1,0
cafe,Ted's Coffe,https://tedscoffeecompany.com/,08:00,21:00,44.4318468,26.1030264,1,1,1,0
cafe,Ted's Coffee,https://tedscoffeecompany.com/,08:00,21:00,44.4334787,26.0366917,1,1,1,0
cafe,Ted's Coffee,https://tedscoffeecompany.com/,08:00,21:00,44.4350298,26.0989576,1,1,1,0
cafe,Ted‘s Coffee,https://tedscoffeecompany.com/,08:00,21:00,44.4443207,26.0977968,1,1,1,0
cafe,Ted's Coffee Co.,https://tedscoffeecompany.com/,08:00,21:00,44.4568644,26.1062512,1,1,1,0
cafe,Ted's Coffee Co.,https://tedscoffeecompany.com/,08:00,21:00,44.4299459,26.0825248,1,1,1,0
cafe,Ted's Coffee Co.,https://tedscoffeecompany.com/,08:00,21:00,44.4339045,25.9546812,1,1,1,0
cafe,Ted's Coffee Co.,https://tedscoffeecompany.com/,08:00,21:00,44.4781157,26.0713642,1,1,1,0
cafe,Ted's coffee co.,https://tedscoffeecompany.com/,08:00,21:00,44.4441737,26.1181102,1,1,1,0
cafe,Ted's Coffee Co.,https://tedscoffeecompany.com/,08:00,21:00,44.4309986,26.0530797,1,1,1,0
cafe,Ted's Coffee Co.,https://tedscoffeecompany.com/,08:00,21:00,44.4346823,26.088366,1,1,1,0
cafe,Ted's Coffee Co.,https://tedscoffeecompany.com/,08:00,21:00,44.4783289,26.1153841,1,1,1,0
cafe,Ted's Coffee Co.,https://tedscoffeecompany.com/,08:00,21:00,44.4798721,26.1162379,1,1,1,0
cafe,Ted's Coffee Co.,https://tedscoffeecompany.com/,08:00,21:00,44.4449291,26.0460948,1,1,1,0
cafe,Ted's Coffee Shop,https://tedscoffeecompany.com/,08:00,21:00,44.4512528,26.0870366,1,1,1,0
cafe,Beans&Dots,http://beansanddots.ro/,08:00,18:00,44.4788711,26.0936265,1,1,1,0
cafe,5 to Go,https://fivetogo.ro/,07:00,19:00,44.493435,26.0854532,1,1,1,0
cafe,Gloria Jean's,https://www.gloriajeans.ro/,08:00,22:00,44.4265291,26.1183834,1,1,1,0
cafe,Handsome Monk,https://handsomemonk.com/,09:00,22:00,44.4268751,26.1344826,1,1,1,0
cafe,Handsome Monk,https://handsomemonk.com/,09:00,22:00,44.4209709,26.150554,1,1,1,0
cafe,Level Up,https://www.facebook.com/p/LEVEL-UP-by-Speciality-Coffee-100057265487362/,08:00,20:00,44.4259511,26.1360989,1,1,1,0
cafe,Manufaktura,https://manufakturacafe.ro/,08:00,22:00,44.4541636,26.0865465,1,1,1,0
cafe,Manufaktura,https://manufakturacafe.ro/,08:00,22:00,44.4201057,26.1261537,1,1,1,0
cafe,OKfea,https://okfea.ro,07:00,19:00,44.4442806,26.1008875,1,1,1,0
cafe,Okfea,https://okfea.ro,07:00,19:00,44.4348264,26.0874745,1,1,1,0
cafe,Okfea,https://okfea.ro/,07:00,19:00,44.4128565,26.1149917,1,1,1,0
cafe,SLOAN Coffee Shop,https://sloanecoffee.com/,08:00,19:00,44.4427318,26.0934122,1,1,1,0
cafe,So! Coffee,https://www.socoffee.com/ro/,06:00,21:00,44.43556,26.1026924,1,1,1,0
cafe,Starbucks,https://www.starbucksromania.ro/,07:00,22:00,44.4780955,26.1149283,1,1,1,0
cafe,Starbucks,https://www.starbucksromania.ro/,07:00,22:00,44.4304182,26.0519172,1,1,1,0
cafe,Starbucks,https://www.starbucksromania.ro/,07:00,22:00,44.4269212,26.1114959,1,1,1,0
cafe,Starbucks,https://www.starbucksromania.ro/,07:00,22:00,44.4903615,26.1270061,1,1,1,0
cafe,Starbucks,https://www.starbucksromania.ro/,07:00,22:00,44.4174848,26.0355947,1,1,1,0
cafe,Starbucks,https://www.starbucksromania.ro/,07:00,22:00,44.4807343,26.1175112,1,1,1,0
cafe,Starbucks,https://www.starbucksromania.ro/,07:00,22:00,44.4520657,26.1298019,1,1,1,0
cafe,Starbucks,https://www.starbucksromania.ro/,07:00,22:00,44.4213743,26.14944,1,1,1,0
cafe,Starbucks,https://www.starbucksromania.ro/,07:00,22:00,44.4514478,26.0850544,1,1,1,0
cafe,Starbucks,https://www.starbucksromania.ro/,07:00,22:00,44.4349463,26.1018352,1,1,1,0
cafe,Starbucks,https://www.starbucksromania.ro/,07:00,22:00,44.4318303,26.1027928,1,1,1,0
cafe,Starbucks,https://www.starbucksromania.ro/,07:00,22:00,44.4652657,26.0871337,1,1,1,0
cafe,STEAM Coffee Shop,https://facebook.com/SteamCoffeeShop,07:00,19:00,44.4368972,26.1057686,1,1,1,0
cafe,Tucano Coffee,https://www.tucanocoffee.com/,09:00,20:00,44.4290874,26.0347827,1,1,1,0
cafe,Tucano Coffee,https://www.tucanocoffee.com/,09:00,20:00,44.4194803,26.1776597,1,1,1,0
cafe,Tucano Coffee,https://www.tucanocoffee.com/,09:00,20:00,44.4417305,25.9786379,1,1,1,0
cafe,Tucano Coffee,https://www.tucanocoffee.com/,09:00,20:00,44.4348188,26.0512994,1,1,1,0
cafe,Fantasia Club,https://www.facebook.com/fantasiaconcept/,12:00,01:00,44.448063,26.1018993,1,1,1,1
cinema,Cineplexx,https://cineplexx.ro/,00:00,23:59,44.4195014,26.1786122,1,1,1,1
cinema,Patria,http://www.cafeteca.ro/,12:00,23:00,44.4425474,26.0992073,1,1,1,0
cinema,IMAX,https://www.cinemacity.ro/imax,00:00,23:59,44.4313649,26.053715,1,1,1,1
cinema,Hollywood Multiplex,https://hmultiplex.ro/,07:00,18:00,44.419819,26.1272566,1,1,1,0
cinema,Cinemateca Eforie,http://www.anf-cinemateca.ro/selectii-din-program,00:00,23:59,44.4340884,26.0968743,1,1,1,1
cinema,Movieplex,https://movieplex.ro/,11:00,23:00,44.428012,26.0340954,1,1,1,0
cinema,Cinema Union,https://www.facebook.com/CinemaUnionBucuresti/,08:00,01:00,44.4371481,26.0960306,1,1,1,1
cinema,Cinema City,https://www.cinemacity.ro/,00:00,23:59,44.3961758,26.1221576,1,1,1,1
cinema,Cinema Europa,http://www.romaniafilm.ro/cinematografe/cinema-europa-bucuresti,00:00,23:59,44.4381292,26.1143094,1,1,1,1
cinema,Cinema Muzeul Țăranului,https://muzeultaranuluiroman.ro/cinema-muzeul-taranului/,00:00,23:59,44.4540878,26.0833847,1,1,1,1
cinema,Cinema City,http://www.cinemacity.ro/,09:00,01:00,44.4408306,26.1521731,1,1,1,1
cinema,Elvira Popescu,https://eventbook.ro/elvirepopesco,00:00,23:59,44.4466171,26.1042824,1,1,1,1
cinema,Cinema City,https://www.cinemacity.ro/,00:00,23:59,44.4313416,26.0526771,1,1,1,1
cinema,Cinemax,https://www.cine-max.ro/,00:00,23:59,44.4519352,26.1311969,1,1,1,1
cinema,Cinema City,https://www.cinemacity.ro/,00:00,23:59,44.4209193,26.1498591,1,1,1,1
cinema,Cinema Europa,https://cinemaeuropa.ro/,00:00,23:59,44.4382926,26.1144317,1,1,1,1
cinema,Happy Cinema,http://www.happycinema.ro/,00:00,23:59,44.399441,26.1468817,1,1,1,1
nightclub,Expirat,https://expirat.org/,20:00,06:00,44.4156103,26.093082,1,0,1,1
nightclub,Encore Club,https://www.facebook.com/encorerockclub#,16:00,03:00,44.4299784,26.0975218,0,0,1,1
nightclub,Club Berlin,https://www.facebook.com/ClubcentrulvechiBERLIN/,11:00,22:00,44.4309796,26.1008413,1,1,1,0
nightclub,Expirat,https://www.expirat.org/,20:00,00:00,44.4154632,26.0931311,0,0,1,1
nightclub,Mojo Music Club,https://mojomusic.ro/,13:00,05:00,44.4311763,26.1023476,0,0,1,1
nightclub,Bound,https://bound.ro/,00:00,23:59,44.4302739,26.100184,1,1,1,1
nightclub,Club Amsterdam,https://www.facebook.com/p/Club-Amsterdam-100046138615192/,20:00,04:00,44.4309271,26.1008299,0,0,1,1
nightclub,Fabrica,https://fabrica-club.ro/,11:00,01:00,44.4205508,26.0951222,1,1,1,1
nightclub,St. Patrick,https://stpatrick.ro/,10:00,21:00,44.4314853,26.0998758,1,1,1,0
nightclub,Control Club,https://www.control-club.ro/,12:00,05:00,44.4355973,26.0969873,1,1,1,1
nightclub,Kiss Club,http://www.kiss-club.ro/,23:00,02:00,44.430579,26.1005539,0,0,0,1
nightclub,Oxigen Club,https://www.oxygen.com.ro/,08:00,22:00,44.3958778,26.1232661,1,1,1,0
nightclub,Bamboo by OXYA,https://bucharest.bambooclub.ro,12:00,21:00,44.467502,26.118016,1,1,1,0
nightclub,Exotic Cigars Club The Buddhist,https://thebuddhist.ro/,21:00,06:00,44.43468,26.0885559,1,0,1,1
nightclub,Fratelli Social Club,https://www.fratelli.ro/,00:00,23:59,44.4724986,26.1132251,1,1,1,1
nightclub,True Social Club,https://trueclub.ro/,18:00,03:00,44.4304604,26.1025169,0,0,1,1
nightclub,Club Daimon,http://www.daimonevents.ro/,10:00,17:00,44.4044767,26.1118271,1,1,1,0
nightclub,Club XS,https://www.club-xs.ro/,22:00,06:00,44.4443292,26.0985778,1,0,1,1
nightclub,Queens Bucharest Club,https://www.theqclub.ro/?utm_source=google&utm_medium=wix_google_business_profile&utm_campaign=14362800304610393029,12:00,22:00,44.4378031,26.1137082,1,1,1,0
nightclub,Colonial club Cernica,https://club-cernica.ro/,10:00,22:00,44.4368693,26.2462085,1,1,1,0
nightclub,Fratelli Studios,https://fratelli.ro/,00:00,23:59,44.4722188,26.1132743,1,1,1,1
nightclub,Fratelli Lounge & Club,https://fratelli.ro/,00:00,23:59,44.4724677,26.1129712,1,1,1,1
nightclub,Beluga Music & Cocktails,https://www.belugamc.ro/,10:00,23:00,44.4318758,26.1003621,1,1,1,0
nightclub,El Comandante Junior,http://www.elcomandante.club/,10:00,22:00,44.4324227,26.1010477,1,1,1,0
nightclub,El Dictador,www.thedrunkenlords.ro,22:00,05:00,44.4321634,26.1009742,0,0,1,1
nightclub,Nuba Summervibes,https://www.nuba.ro/,21:00,04:00,44.4776188,26.0860684,0,0,1,1
nightclub,KAYO Club,https://www.kayo.ro/,12:00,22:00,44.476776,26.088356,1,1,1,0
nightclub,Club Mono,https://clubmono.ro/,22:00,05:00,44.4367837,26.1013136,0,0,1,1
nightclub,Comics Club,https://comicsclub.ro/,19:00,00:00,44.4243989,26.1184091,0,0,1,1
nightclub,Agartha Club,https://www.facebook.com/Agartha-club-110550458294560/,10:00,00:00,44.4306672,26.1013188,1,1,1,1
nightclub,Limoncello Club,https://limoncelloclub.ro/,10:00,22:00,44.431716,26.102262,1,1,1,0
nightclub,Victoriei Ballroom,http://www.victoriei-ballroom.ro,10:00,23:00,44.433551,26.0978154,1,1,1,0
nightclub,Kulturhaus,http://www.kulturhaus.ro/,17:00,00:00,44.4313269,26.1045746,0,0,1,1
nightclub,The Vintage,https://www.thevintagepub.ro/,11:00,23:00,44.4302965,26.1004315,1,1,1,0
nightclub,Club Șurubelnița,http://www.clubsurubelnita.ro/,09:00,20:00,44.4347509,26.1080883,1,1,1,0
nightclub,Fire Club,https://fire.ro/,10:00,22:00,44.4308644,26.1019792,1,1,1,0
nightclub,The Wally's Club,https://www.facebook.com/thewallysclub/,12:00,04:00,44.4302721,26.1006518,1,1,1,1
nightclub,Sinners,http://facebook.com/sinners.pub,15:00,02:00,44.431064,26.1008595,0,0,1,1
pub,The Dubliner,http://dubliner.ro/,10:00,22:00,44.4523305,26.0772008,1,1,1,0
pub,Argentin,https://argentin-restaurant.ro/,08:00,23:00,44.4322301,26.101746,1,1,1,0
pub,Le Boutique Food Concept Store,http://www.leboutiquefood.ro/,09:00,00:00,44.4361482,26.1166468,1,1,1,1
pub,Beanz café,https://rb.gy/qkv1s,09:00,20:00,44.4128935,26.105045,1,1,1,0
pub,Big Ben Pub,https://bigbenpub.ro/,12:00,02:00,44.4296829,26.1005311,1,1,1,1
pub,Curtea Berarilor,https://www.curteaberarilor.com/,15:00,01:00,44.4306844,26.1012456,0,0,1,1
pub,Boulevard Pub,https://www.facebook.com/BOULEVARDPUB/,15:00,02:00,44.4309125,26.1012056,0,0,1,1
pub,Jack’s Pub,https://jackspub.ro/,10:00,02:00,44.4319201,26.101024,1,1,1,1
pub,Beer O'Clock,http://www.beeroclock.ro/,17:00,02:00,44.4314133,26.1013589,0,0,1,1
pub,Half Time,http://www.halftimepub.ro/,13:00,03:00,44.4312202,26.1022487,0,0,1,1
pub,Long Fong,https://longfong.ro/,11:00,23:00,44.4196249,26.0949847,1,1,1,0
pub,The Place,http://www.theplacepub.ro/,08:00,18:00,44.456226,26.0756557,1,1,1,0
pub,Draft Pub Tankeria Ursus,https://www.facebook.com/tankeriadraft/,12:00,00:00,44.5021751,26.0574786,1,1,1,1
pub,Zeppelin Pub,https://zeppelinpub.ro/,16:00,00:00,44.4398976,26.1100926,0,0,1,1
pub,Primus,https://www.primuspub.ro/,11:00,00:00,44.4421986,26.0945891,1,1,1,1
pub,Lucky Point,https://lucky-point.eatbu.com/,12:00,02:00,44.4432886,26.0639358,1,1,1,1
pub,Nexus Gamers Pub,https://nexusclub.ro/,12:00,06:00,44.4220564,26.0736663,1,1,1,1
pub,Oktoberfest Pub,http://www.oktoberfest-pub.ro,00:00,23:59,44.4305715,26.0989805,1,1,1,1
pub,Beraria Gambrinus,http://gmbrns.ro/,12:00,05:00,44.4348407,26.0948194,1,1,1,1
pub,Doncafe Brasserie,http://www.doncafe-brasserie.ro/,08:00,23:00,44.4595299,26.0930245,1,1,1,0
pub,Victor Pub,http://www.victorspub.com/,11:00,17:00,44.4197247,26.0594107,1,1,1,0
pub,Filos Pub,https://www.facebook.com/p/Filos-Grozavesti-100082161312634/,08:00,02:00,44.4431389,26.0641923,1,1,1,1
pub,Snatch Pub,https://www.facebook.com/SnatchPub/,07:00,02:00,44.425746,26.0700891,1,1,1,1
pub,La Donna,https://www.ladonna.ro/,12:00,00:00,44.4272962,26.1438052,1,1,1,1
pub,Friends Pub,https://www.facebook.com/FriendsPubBucuresti/?_rdr,10:00,00:00,44.4288123,26.1531624,1,1,1,1
pub,Manasia Hub,https://m.facebook.com/manasiahub,12:00,03:00,44.4318869,26.1066618,1,1,1,1
pub,The Roof,https://www.facebook.com/TheRoof.terrace/,12:00,02:00,44.4224059,26.1242683,1,1,1,1
pub,Bordo Caffe & Pub,http://www.bordopub.ro/,10:00,00:00,44.4716361,26.0732197,1,1,1,1
pub,The Temple,https://thetemplesocialpub.ro/,12:00,15:00,44.4206805,26.1022836,1,1,0,0
pub,Smart's Pub & Bistro,https://www.facebook.com/smartbistro,10:00,18:00,44.4426987,26.1095945,1,1,1,0
pub,Zăganu Bistro and Romanian Craft Beer Bar,https://www.bere-zaganu.ro/,12:00,00:00,44.4429697,26.0931739,1,1,1,1
pub,The George and dragon pub,https://george-dragon.ro/,12:00,00:00,44.4221695,26.1057574,1,1,1,1
pub,Point,https://pointhub.ro/,11:00,23:00,44.4447193,26.1025241,1,1,1,0
pub,Trinity College Pub,https://www.facebook.com/trinitycollegepubbucuresti,12:00,02:00,44.4306331,26.1007665,1,1,1,1
pub,Corner Pub & Grill,https://www.facebook.com/cornerpubandgrill.ro/,12:00,23:00,44.4267234,26.143989,1,1,1,0
pub,The Beer Institute,http://www.thebeerinstitute.ro/,10:00,22:00,44.4606048,26.1006972,1,1,1,0
pub,Dreamer's Pub,http://www.dreamers.ro/,17:00,23:00,44.4411273,26.0816811,0,1,1,0
pub,Old Jack PUB,https://www.facebook.com/p/Old-Jack-Pub-100093200276730/,10:00,22:00,44.4425669,26.0961878,1,1,1,0
pub,Club Texas,http://www.clubtexas.net/,11:00,01:00,44.4459646,26.0513634,1,1,1,1
pub,The PUB Trocadero,https://www.the-pub.ro/,11:00,00:00,44.4346859,26.1000774,1,1,1,1
pub,Zen Pub,https://zenbar.ro/,17:00,02:00,44.4310273,26.1009626,0,0,1,1
pub,Beraria Nenea Iancu,http://www.berarianeneaiancu.ro/,07:00,20:00,44.4309691,26.101384,1,1,1,0
pub,Extra Time,https://extra-time.ro/,07:00,18:00,44.431707,26.1024164,1,1,1,0
pub,Mao Pub,https://www.facebook.com/Maopub/,12:00,22:20,44.4318372,26.1023616,1,1,1,0
pub,Private Hell Rock Club,http://privatehell.ro/,09:00,00:00,44.4304673,26.1014168,1,1,1,1
pub,Cross Fire,https://www.facebook.com/crossfirezarafi/,12:00,00:00,44.4313635,26.1023498,1,1,1,1
pub,St. Patrick,https://stpatrick.ro/,11:00,02:00,44.4315523,26.099697,1,1,1,1
pub,Rombier,http://franciza.rombeer.ro/,10:00,02:00,44.4235231,26.0409302,1,1,1,1
pub,The Beer Institute,http://www.thebeerinstitute.ro/,12:00,03:00,44.4483727,26.0988602,1,1,1,1
pub,Geek Hub,https://www.bucharestgeekhub.com,08:00,22:00,44.4306872,26.101472,1,1,1,0
pub,La Mahala,http://www.bodegalamahala.ro/,12:00,23:00,44.430617,26.1018324,1,1,1,0
pub,Teo's Tonics,https://www.facebook.com/TeosTonics/,00:00,23:59,44.4317322,26.1017211,1,1,1,1
pub,Terminus,http://www.terminus.ro/,09:00,23:00,44.442257,26.0947504,1,1,1,0
pub,Zepelin 1929,https://www.instagram.com/zepelin1929/?hl=en,10:00,22:00,44.4192864,26.0915478,1,1,1,0
pub,Oktoberfest Pub,https://oktoberfestpub.ro/,10:00,00:00,44.4329143,26.1258859,1,1,1,1
pub,1UP Gamers Pub,https://www.facebook.com/1UpGamersPub/?locale=ro_RO,11:00,21:00,44.4449566,26.0962978,1,1,1,0
pub,The Bao House,https://thebaohouse.ro/,10:00,22:00,44.4494284,26.0885398,1,1,1,0
pub,Ryan's Irish Pub,https://www.facebook.com/ryanspubandmore/,07:00,16:00,44.4437782,26.0948612,1,1,0,0
restaurant,Alouette Urban Osteria,https://alouette.ro/meniu/,11:00,23:00,44.4076774,26.1244118,1,1,1,0
restaurant,Antiqua Napoli,https://antiquanapoli.ro/,11:00,22:00,44.3357421,26.1720863,1,1,1,0
restaurant,Argentine,https://www.restaurant-argentine.ro/,12:00,23:00,44.5057031,26.0888043,1,1,1,0
restaurant,Atelierul de Tarte,https://atelieruldetarte.ro/,10:00,22:00,44.4329501,26.0504119,1,1,1,0
restaurant,Aubergine,https://aubergine-restaurant.ro/,00:00,22:00,44.431115,26.0999104,1,1,1,1
restaurant,AveForchetta,https://aveforchetta.ro/,00:00,23:00,44.436023,26.0963148,1,1,1,1
restaurant,Avocadoo,https://avocadoo.ro,10:00,22:00,44.4310785,26.0524543,1,1,1,0
restaurant,Avocadoo,https://avocadoo.ro,09:00,21:00,44.4595361,26.0777895,1,1,1,0
restaurant,B3ton Restobar,https://b3ton.ro/,10:00,00:00,44.4179161,26.0964421,1,1,1,1
restaurant,Barrio,http://www.barrio.ro/,09:00,23:00,44.4451935,26.0956516,1,1,1,0
restaurant,Bellini Garden,http://www.bellinigarden.ro/,00:00,23:00,44.4412115,26.0870892,1,1,1,1
restaurant,Big Mic,http://www.bigmic.ro/,10:00,21:00,44.4058425,26.1635221,1,1,1,0
restaurant,Bistro Raw Vegan,https://www.bistrorawvegan.com/,11:00,19:00,44.4424659,26.0856119,1,1,1,0
restaurant,Blank Restaurant,https://www.marriott.com/,00:00,22:00,44.4334719,26.0989158,1,1,1,1
restaurant,Boutique du Pain,https://boutiquedupain.ro/,08:00,22:00,44.4375803,26.0984898,1,1,1,0
restaurant,Bucatarasul cel Dibaci,https://www.bucatarasul.ro/,10:00,22:00,44.4290862,26.1099034,1,1,1,0
restaurant,Buongiorno Italian,https://buongiornoitalian.ro/ro,08:00,00:00,44.5104165,26.0866602,1,1,1,1
restaurant,Cadé,http://www.camiceriacademilano.it/,10:00,19:00,44.4660582,26.0679568,1,1,1,0
restaurant,Cafeneaua Veche 9,https://cafeneauaveche9.ro/,12:00,00:00,44.4303553,26.1023997,1,1,1,1
restaurant,Capri Fusion,https://am-gasit.ro/capri-fusion/,09:00,21:00,44.413081,26.1139298,1,1,1,0
restaurant,Casa Brândușa,http://www.restaurant-casabrandusa.ro/,11:00,23:00,44.416994,26.0649545,1,1,1,0
restaurant,Casa Nașului,http://casanasului.ro/,00:00,23:00,44.4368094,26.038887,1,1,1,1
restaurant,Cafeneaua Actorilor,https://www.cafeneaua-actorilor.com/,11:00,00:00,44.4081012,26.1104368,1,1,1,1
restaurant,Hanul Drumețului,https://www.hanuldrumetului.ro/,00:00,23:59,44.4188462,26.0430751,1,1,1,1
restaurant,Pizza Hut,https://www.pizzahut.ro/homepage,11:00,22:00,44.4346528,26.0984804,1,1,1,0
restaurant,La Fattoria,http://www.lafattoria.ro/,12:00,22:00,44.4805585,26.0859548,1,1,1,0
restaurant,The Harp,https://theharp.ro/,12:00,00:00,44.425617,26.1030429,1,1,1,1
restaurant,Pizza Hut,https://www.pizzahut.ro/homepage,07:00,21:00,44.4467428,26.0986674,1,1,1,0
restaurant,Pui de Urs,http://www.puideurs.ro/,00:00,23:59,44.4408966,26.055632,1,1,1,1
restaurant,Bistro La Boeru,https://www.facebook.com/Bistrolaboeru/,08:00,23:00,44.493138,26.0787062,1,1,1,0
restaurant,La Cocoșatu',https://www.lacocosatu.ro/,10:00,22:00,44.4944416,26.0823666,1,1,1,0
restaurant,Herăstrău,https://www.herastrau.ro/restaurant/,00:00,23:59,44.4802777,26.0787456,1,1,1,1
restaurant,Restaurantul Palatul Ghica Tei,http://www.palatulghicatei.ro/,07:00,20:00,44.4662609,26.1285115,1,1,1,0
restaurant,Haute Pepper,https://www.hautepepper.ro/,10:00,23:00,44.426784,26.0932155,1,1,1,0
restaurant,Locanta Jariștea,https://jaristea.ro/,08:00,20:00,44.4235411,26.0920681,1,1,1,0
restaurant,Restaurant Quartiere,http://quartiere.ro/,08:00,22:00,44.4605751,26.1160493,1,1,1,0
restaurant,Intermacedonia,https://www.intermacedonia.ro/,12:00,00:00,44.4416359,26.1334881,1,1,1,1
restaurant,Passion Club,https://www.passionclub.ro/,07:00,19:00,44.4177325,26.0134114,1,1,1,0
restaurant,La Senna,https://lasenna.ro/,00:00,22:00,44.4786886,26.0923319,1,1,1,1
restaurant,Restaurant Thalia Tineretului,https://www.restaurantthalia.ro/,10:00,22:00,44.4162857,26.1069395,1,1,1,0
restaurant,Qian Bao,https://www.qianbao.ro/,11:00,23:00,44.4232703,26.1383983,1,1,1,0
restaurant,La Mama,http://www.lamama.ro/,10:00,22:00,44.4533899,26.1046168,1,1,1,0
restaurant,Casa Gorjana,http://casagorjana.ro/,10:00,22:00,44.4337908,26.0945654,1,1,1,0
restaurant,Caru' cu Bere,https://www.carucubere.ro/,09:00,00:00,44.4320009,26.0981059,1,1,1,1
restaurant,Sushi Garden,https://sushigarden.ro/,13:00,22:00,44.4200897,26.1020227,0,1,1,0
restaurant,Restaurant Horoscop,https://www.restauranthoroscop.ro/,12:00,23:00,44.425341,26.1036865,1,1,1,0
restaurant,El Torito,https://www.eltorito.ro/,12:00,00:00,44.4427079,26.121423,1,1,1,1
restaurant,Cetatea Berarilor,https://cetateaberarilor.ro/,12:00,23:00,44.4150302,26.1544566,1,1,1,0
restaurant,Trattoria Il Calcio,https://trattoriailcalcio.com/?_gl=1%2A1elb6md%2A_up%2AMQ..%2A_ga%2ANDUyNTgwMTguMTczOTcwMzI2Mw..%2A_ga_6LNC3EHCM4%2AMTczOTcwMzI2Mi4xLjEuMTczOTcwMzI2Ni4wLjAuOTI3NjkxNjAz%2A_ga_85YGRXVSCF%2AMTczOTcwMzI2Mi4xLjEuMTczOTcwMzI2Ni4wLjAuMTUzOTg5MzI5MA..#floreasca,12:00,23:00,44.4329734,26.1284085,1,1,1,0
restaurant,Restaurant Casa Jienilor,https://www.casajienilor.ro/,09:00,18:00,44.4479515,26.1218915,1,1,1,0
restaurant,Templul Soarelui,http://templulsoarelui.ro/,09:00,17:00,44.4464418,26.1149006,1,1,1,0
restaurant,Amore Restaurant,https://restaurantamore.eu/,09:00,20:00,44.4465849,26.1149603,1,1,1,0
restaurant,Il Destino,https://ildestino.ro/,12:00,23:00,44.4433207,26.1151592,1,1,1,0
restaurant,Zen Garden,https://www.zen-garden-restaurant.ro/,08:00,23:00,44.440399,26.1121365,1,1,1,0
restaurant,Çeşme,https://www.restaurantcesme.ro/,10:00,21:00,44.4185755,26.0588041,1,1,1,0
restaurant,Four seasons,http://www.four-seasons.ro/,12:00,23:00,44.4435201,26.1100351,1,1,1,0
restaurant,Grand Café Van Gogh,https://vangogh.ro/,12:00,00:00,44.4324045,26.1001113,1,1,1,1
restaurant,Les Bourgeois,https://lesbourgeois.ro/,08:00,17:00,44.4310061,26.0996847,1,1,1,0
restaurant,Burger si Scoici,https://burgerscoici.ro/,08:00,00:00,44.4306689,26.1000814,1,1,1,1
restaurant,Arcade Cafe,https://arcadecafe.ro/,07:00,20:00,44.4304908,26.0999918,1,1,1,0
restaurant,Hanu' Berarilor,https://hanuberarilor.ro/,07:00,20:00,44.4286875,26.0951782,1,1,1,0
restaurant,Kilkenny,https://stpatrick.ro,08:00,20:00,44.4299564,26.1000098,1,1,1,0
restaurant,Excalibur,http://www.restaurantexcalibur.ro/,19:00,05:00,44.4382055,26.0978061,0,0,1,1
restaurant,Casa Vernescu,http://www.palacecasino.eu/,09:00,02:00,44.44739,26.0896768,1,1,1,1
restaurant,City Grill,https://citygrill.ro/ro,08:00,22:00,44.4304086,26.1026456,1,1,1,0
restaurant,OSHO,https://www.osho-restaurant.ro/,10:00,23:00,44.4682313,26.0898528,1,1,1,0
restaurant,Traffic,https://www.trafficpub.ro/,10:00,00:00,44.4242445,26.1292801,1,1,1,1
restaurant,Trattoria Colosseum,http://www.pizzacolosseum.ro/,10:00,23:00,44.4365712,26.0988974,1,1,1,0
restaurant,Saray,https://www.facebook.com/Saray-restaurant-187094431336695/,09:00,22:00,44.4325099,26.0983808,1,1,1,0
restaurant,Exile,https://m.facebook.com/Restaurant-Exile-102871723113717/,00:00,22:00,44.459741,26.0924324,1,1,1,1
restaurant,Il Villagio Dorobanți,https://ilvillagio.ro/il-villagio-dorobanti/,12:00,00:00,44.4622458,26.094289,1,1,1,1
restaurant,Casa Oamenilor de Știință,https://www.cos-restaurant-bucuresti.ro/,00:00,22:00,44.4457911,26.0994413,1,1,1,1
restaurant,Hanu' Berarilor Uranus,https://hanuberarilor.ro/,08:00,21:00,44.4211522,26.0862491,1,1,1,0
restaurant,Edo Sushi,https://www.edo-sushi.ro/,10:00,00:00,44.4401163,26.0870019,1,1,1,1
restaurant,Restaurant Capitol,https://www.hotelcapitol.ro/,10:00,22:00,44.4354002,26.0976559,1,1,1,0
restaurant,Trattoria Pizzerie Verdi,https://www.trattoriaverdi.ro/,09:00,21:00,44.4614805,26.0856186,1,1,1,0
restaurant,Savart,https://savart.ro/,12:00,01:00,44.4423341,26.095527,1,1,1,1
restaurant,La Finca by Alioli,https://www.alioli.ro/,12:00,23:00,44.4519404,26.0960255,1,1,1,0
restaurant,La Brasserie Bistro & Lounge,https://labrasserie.ro/,12:00,22:00,44.4759594,26.0889984,1,1,1,0
restaurant,Casa di David,https://www.casadidavid.ro/,12:00,00:00,44.4754732,26.0893563,1,1,1,1
restaurant,L'esperance,https://lesperance.ro/,10:00,20:00,44.464729,26.0763092,1,1,1,0
restaurant,Restaurant Costelaria,https://www.facebook.com/costelaria.oficial/,00:00,22:00,44.4194602,26.0951402,1,1,1,1
restaurant,Restaurant Nașu și Finu,https://www.nasu-finu.ro/,11:00,00:00,44.384782,26.1102429,1,1,1,1
restaurant,Pizza Hut,https://www.pizzahut.ro/homepage,08:00,22:00,44.3958452,26.1220844,1,1,1,0
restaurant,Barbizon Steak House,https://restaurants.accor.com/gb/restaurant-1714_R001-barbizon-steak-house-bucharest.shtml,12:00,23:00,44.4755901,26.0702395,1,1,1,0
restaurant,Trattoria Il Calcio Floreasca,https://trattoriailcalcio.com/floreasca-2/,14:00,01:00,44.4626698,26.1016694,0,0,1,1
restaurant,Suzana Ribs & Wings,https://suzanaribs.ro/,09:00,18:00,44.42143,26.0866607,1,1,1,0
restaurant,Pizzeria Volare,http://www.pizzeria-volare.ro/,11:00,23:00,44.4111952,26.1154437,1,1,1,0
restaurant,Stadio Park,http://www.stadio.ro/,10:00,00:00,44.4797909,26.0859618,1,1,1,1
restaurant,Bistro HB,http://www.bistrohb.ro/,10:00,01:00,44.4411119,26.1282979,1,1,1,1
restaurant,Chinese Garden,https://chinesegarden.ro/,11:00,23:00,44.442079,26.1056742,1,1,1,0
restaurant,Naan Project,http://www.naan.ro/,07:00,19:00,44.4276347,26.0619668,1,1,1,0
restaurant,Corso,https://www.grandhotelbucharest.ro/ro/corso_brasserie__terrace/,07:00,22:00,44.4373934,26.1019758,1,1,1,0
restaurant,Restaurant Elisabeta,http://www.restaurantelisabeta.ro/,11:00,23:00,44.4345723,26.0940905,1,1,1,0
restaurant,La Cena,https://lacena.ro/,12:00,00:00,44.4420169,26.1058596,1,1,1,1
restaurant,Mosto - Natural Wine Bar & Bistró,http://www.mosto.ro/,06:00,22:00,44.441125,26.1017427,1,1,1,0
restaurant,Chocolat,https://www.chocolat.com.ro/,08:00,23:00,44.4641627,26.0953974,1,1,1,0
restaurant,Balls,http://www.balls.ro/,12:00,22:00,44.44540221,26.11441364,1,1,1,0
restaurant,Trattoria Piccola,https://trattoriapiccola.ro/,09:00,23:00,44.4068151,26.1145104,1,1,1,0
restaurant,Casa Diham,http://casadiham.ro/Tineretului,12:00,00:00,44.4075992,26.1159012,1,1,1,1
restaurant,Odeon,https://www.restaurantodeon.ro/,10:00,01:00,44.4101224,26.1204542,1,1,1,1
restaurant,Dream by MGC,https://dreampizza.ro/,11:00,23:50,44.4241296,26.0439899,1,1,1,1
restaurant,Restaurantul Militar,https://www.cmn.ro/Restaurantul-militar-Bucuresti.html,12:00,21:00,44.4349618,26.0970199,1,1,1,0
restaurant,Trattoria Roma,https://www.trattoriaroma.ro/,12:00,23:00,44.4244983,26.0444194,1,1,1,0
restaurant,Hanu Berarilor (Casa Elena Lupescu),https://hanuberarilor.ro/,08:00,00:00,44.4396716,26.1238481,1,1,1,1
restaurant,Namaste,https://www.restaurantnamaste.ro/,12:00,22:00,44.4373713,26.1140637,1,1,1,0
restaurant,Toka,https://www.facebook.com/p/Toka-100076486687353/,12:00,00:00,44.4331423,26.1166971,1,1,1,1
restaurant,Zexe Zahana,https://www.zexe.ro/Zahana,14:00,00:00,44.46122,26.08683,0,0,1,1
restaurant,Zexe Evenimente,https://www.zexe.ro/Evenimente,07:00,17:00,44.4696513,26.1164465,1,1,1,0
restaurant,La Ceaunu' Crăpat,https://www.ceaunucrapat.ro/,10:00,22:00,44.4409479,26.1058175,1,1,1,0
restaurant,Hanu' lui Manuc,https://hanumanucrestaurant.ro,10:00,00:00,44.4297201,26.102347,1,1,1,1
restaurant,Il Peccato,https://www.ilpeccato.ro/,12:00,00:00,44.43025,26.0996985,1,1,1,1
restaurant,Bazaar,https://www.thebazaar.ro/,12:00,21:00,44.4305236,26.1020221,1,1,1,0
restaurant,Yellow Club,https://eventbook.ro/hall/yellow-club-bucuresti?lang=ro,18:00,02:00,44.4311836,26.1668111,0,0,1,1
restaurant,Restaurant Sabatini,http://www.sabatinipizza.ro/,12:00,02:00,44.4335926,26.1555933,1,1,1,1
restaurant,West Gate Restaurant,http://www.pranzo.ro/,10:00,21:00,44.4318026,25.9881492,1,1,1,0
restaurant,Gallo Nero,https://gallonero.ro/,12:00,23:00,44.4285798,26.133682,1,1,1,0
restaurant,Taj,https://www.tajrestaurant.ro/,12:00,22:00,44.4229723,26.0741393,1,1,1,0
restaurant,Caju,https://cajubyjosephhadad.ro/,10:00,22:00,44.4417684,26.0976962,1,1,1,0
restaurant,La Mama - Clubul Țăranului,http://www.lamama.ro/,09:00,22:00,44.4543869,26.083092,1,1,1,0
restaurant,Golden Kebap,http://turkishgoldenkebab.metro.rest/,08:00,00:00,44.4454427,26.1362181,1,1,1,1
restaurant,Mon Paris,http://www.restaurantmonparis.ro/,12:00,00:00,44.4462158,26.105741,1,1,1,1
restaurant,Paque Bistro & More,https://www.facebook.com/PaqueBistro/info,06:00,20:00,44.4395274,26.1246991,1,1,1,0
restaurant,PizzaMania,https://pizzamania.ro/,07:00,17:00,44.450744,26.0885275,1,1,1,0
restaurant,Blue Margarita,https://www.bluemargarita.ro/,12:00,23:00,44.4496187,26.0928175,1,1,1,0
restaurant,It Cucina,https://itcucina.ro,12:00,00:00,44.4767333,26.0882728,1,1,1,1
restaurant,Sushi KO,http://www.sushiko.ro/,12:00,10:00,44.4772148,26.0881711,1,1,1,1
restaurant,Sharkia,https://tasteofbucharest.ro/restaurant/sharkia/,12:00,23:00,44.4409517,26.0929297,1,1,1,0
restaurant,Pescarul,https://www.facebook.com/RestaurantPescarul/,08:00,17:00,44.4373078,26.1010628,1,1,1,0
restaurant,Ai Sapori,https://www.facebook.com/RestaurantAiSapori,12:00,22:00,44.4274748,26.0477453,1,1,1,0
restaurant,Energiea,https://energiea.ro/,08:00,20:00,44.4332904,26.094903,1,1,1,0
restaurant,Trattoria Don Vito,http://trattoriadonvito.ro/,12:00,22:00,44.4430095,26.0964833,1,1,1,0
restaurant,Restaurant Nan Jing,http://www.restaurantnanjing.ro,12:00,23:00,44.4494397,26.0913008,1,1,1,0
restaurant,Trattoria Monza,https://www.trattoriamonza.ro/,08:00,19:00,44.4279306,26.1537351,1,1,1,0
restaurant,Moments,https://beacons.ai/moftdelishopfloreasca,09:00,22:00,44.4085277,26.118269,1,1,1,0
restaurant,I'Ladrino,https://iladrino.ro,07:00,23:00,44.4423911,26.1419603,1,1,1,0
restaurant,Cuptorul cu Lemne,https://www.cuptorulculemne.com,10:00,23:00,44.4398899,26.125228,1,1,1,0
restaurant,Stadio,https://www.stadio.ro/,07:00,18:00,44.4371973,26.0991169,1,1,1,0
restaurant,Cafélier,http://www.cafelier-atelier.ro/,07:00,16:00,44.4473545,26.0953731,1,1,0,0
restaurant,Slow,https://slowrestaurant.ro/,17:00,22:00,44.4347554,26.1066048,0,1,1,0
restaurant,Trattoria Borghese,http://www.trattoriaborghese.ro/,10:00,00:00,44.3991626,26.1102693,1,1,1,1
restaurant,Latin Pizza,https://www.latinpizza.ro/,12:00,00:00,44.4540893,26.0983799,1,1,1,1
restaurant,YUKI japanese home dining,https://yukihomedining.ro,07:00,17:00,44.4608067,26.0951345,1,1,1,0
restaurant,Restaurant MeLe,http://melerestaurant.ro,07:00,18:00,44.4233614,26.0771157,1,1,1,0
restaurant,Il Calcio By Mr Val - Clucerului,https://ilcalcio.ro/,12:00,23:00,44.4597604,26.0776421,1,1,1,0
restaurant,Restaurant CASA NICA,http://restaurantcasanica.ro/,11:00,23:00,44.395064,26.103178,1,1,1,0
restaurant,Bellagio Villa,https://bellagiovilla.ro/,12:00,22:00,44.4127263,26.1309865,1,1,1,0
restaurant,Switch.eat,https://www.facebook.com/switchbistro,12:15,23:00,44.4426378,26.1245348,0,1,1,0
restaurant,Karishma,https://karishma.ro/,12:00,23:00,44.4433911,26.1214674,1,1,1,0
restaurant,Templul Soarelui,http://templulsoarelui.ro/,08:00,22:00,44.440682,26.119534,1,1,1,0
restaurant,Nicorești,http://restaurantnicoresti.ro/,11:00,17:00,44.4417016,26.1122403,1,1,1,0
restaurant,Amada Ballroom,http://amadaballroom.ro/,00:00,23:59,44.434772,26.0425408,1,1,1,1
restaurant,Restaurant Clasis,https://restaurantturkishclasis.eatbu.com/,10:00,22:00,44.4149945,26.085475,1,1,1,0
restaurant,Restaurant Allegro,https://www.restaurant-allegro.ro/,12:00,00:00,44.42139,26.1632612,1,1,1,1
restaurant,Restaurant Delea Nouă,https://www.restaurant-deleanoua.ro/,10:00,00:00,44.4296415,26.1304714,1,1,1,1
restaurant,Conacul Zeneea,https://conaculzeneea.ro,11:00,22:00,44.4388274,26.1211802,1,1,1,0
restaurant,Sublimmme,https://www.sublimmme.ro,11:00,20:00,44.4297319,26.0991461,1,1,1,0
restaurant,Tulin,https://www.restauranttulin.ro/,12:00,22:00,44.4393112,26.086758,1,1,1,0
restaurant,Restaurantul Vatra,https://vatra.ro/,12:00,23:00,44.4353245,26.0945805,1,1,1,0
restaurant,Garibaldi Trattoria & Pub,https://trattoria-garibaldi.ro/,11:00,23:00,44.4212967,26.0987328,1,1,1,0
restaurant,Haveli,https://www.haveli.ro/,12:00,23:00,44.4449265,26.1177098,1,1,1,0
restaurant,7 Days,http://restaurant7days.ro/,12:00,22:00,44.4283553,26.1482497,1,1,1,0
restaurant,La Ștrati,https://www.facebook.com/pages/La%20%C8%98trati%20Restaurant/372980492717844/,17:00,02:00,44.4280122,26.1484869,0,0,1,1
restaurant,Ciorbe și Plăcinte,https://ciorbesiplacinte.ro,11:00,00:00,44.4363091,26.105674,1,1,1,1
restaurant,Trenta Pizza,http://www.trentapizza.ro/,11:00,01:00,44.3879813,26.1080327,1,1,1,1
restaurant,Restaurant Capșa,http://www.capsa.ro/,17:00,00:00,44.4353877,26.0981401,0,0,1,1
restaurant,La Plăcinte,https://laplacinte.ro/,13:00,01:00,44.4525392,26.1105532,0,0,1,1
restaurant,Hop Garden,https://hopgarden.ro/,20:00,04:00,44.410835,26.1210472,0,0,1,1
restaurant,Burger Van Bistro,https://burgervan.ro/,16:00,01:00,44.4366067,26.095216,0,0,1,1
restaurant,Trattoria Verdi,https://www.trattoriaverdi.ro/,21:00,02:00,44.4172482,26.172732,0,0,1,1
restaurant,Bocca Lupo,http://www.boccalupo.ro/,11:00,02:00,44.4338045,26.0779472,1,1,1,1
restaurant,Trattoria Adagio,http://www.trattoriaadagio.ro/,06:00,10:00,44.4450683,26.0991628,1,0,0,0
restaurant,Centro,http://www.centrorestaurant.ro/,22:00,05:00,44.4463209,26.0992854,0,0,1,1
restaurant,Trattoria Donna Victoria,www.trattoriadonnavictoria.ro,11:00,00:00,44.4433635,26.0171834,1,1,1,1
restaurant,Luna Café & Bistro,https://lunacafe.ro/,12:00,00:00,44.4437153,26.1117377,1,1,1,1
restaurant,La Copac,https://www.lacopac.ro/,13:00,23:00,44.4433307,26.1007636,0,1,1,0
restaurant,Azzurro,http://www.azzurro.com.ro/,10:00,00:00,44.442602,26.1516209,1,1,1,1
restaurant,Restaurant Botanic,https://www.botanic.ro/,10:00,00:00,44.4030456,26.1103595,1,1,1,1
restaurant,Zigu,https://zigu.ro/,12:00,23:00,44.4505079,26.2271295,1,1,1,0
restaurant,Provence - Berceni,http://www.restaurantprovence.ro/,11:00,00:00,44.3826682,26.1162033,1,1,1,1
restaurant,Argentine Steak & Sushi,https://www.restaurant-argentine.ro,12:00,23:00,44.4770821,26.0884168,1,1,1,0
restaurant,Acuarela,http://acuarelabistro.ro/,00:00,23:59,44.4488847,26.1030264,1,1,1,1
restaurant,Simbio,https://www.simbio.ro/,11:00,23:00,44.4350103,26.1119188,1,1,1,0
restaurant,Li-WU,https://liwu.ro/,11:00,22:00,44.4527407,26.1061532,1,1,1,0
restaurant,Lacrimi și Sfinți,https://www.lacrimisisfinti.com/,11:00,00:00,44.4305362,26.102866,1,1,1,1
restaurant,Trattoria Roma Mântuleasa,https://www.trattoria-roma.ro/trattoria-mantuleasa.php,08:00,20:00,44.4366986,26.1140032,1,1,1,0
restaurant,Vechea Napoli,http://www.vecchianapoli.ro/,16:00,00:00,44.4662845,26.0534667,0,0,1,1
restaurant,Kanpai,https://kanpai.ro,12:00,22:00,44.462138,26.0992797,1,1,1,0
restaurant,Pane e Vino,https://www.paneevino.ro/,12:00,22:00,44.4197716,26.1157898,1,1,1,0
restaurant,Casa Myt,https://www.casa-myt.ro/,14:00,00:00,44.4265613,26.0579713,0,0,1,1
restaurant,Friends Social Bistro,http://www.bistrofriends.ro/,08:00,19:00,44.4163287,26.1228467,1,1,1,0
restaurant,Restaurant Vanity,http://www.restaurantvanity.ro/,11:00,01:00,44.4438298,26.0527745,1,1,1,1
restaurant,Ganesha Garden,http://www.ganeshacaffe.ro/,13:00,02:00,44.4568803,26.1056845,0,0,1,1
restaurant,Beca’s Kitchen,http://www.becaskitchen.ro/,12:00,23:00,44.4477138,26.1040419,1,1,1,0
restaurant,Templul Soarelui,http://templulsoarelui.ro/,12:00,00:00,44.4517009,26.1115514,1,1,1,1
restaurant,Restaurant Dacia Romană,https://landing.for.restaurant/ro/restaurant-dacia,11:00,23:00,44.4326826,26.1465672,1,1,1,0
restaurant,Bodega Espaniola Alioli,https://www.alioli.ro/,12:00,00:00,44.4401898,26.0866211,1,1,1,1
restaurant,Trattoria Angoli,https://www.trattoriaangoli.ro/,11:00,00:00,44.4011743,26.1094868,1,1,1,1
restaurant,Terasa Castel,https://www.facebook.com/p/Terasa-Castel-100065188814109/,10:00,21:00,44.4024169,26.1100177,1,1,1,0
restaurant,Lingura și strachina,https://www.lingurasistrachina.ro/,09:00,16:00,44.4308378,26.1386024,1,1,0,0
restaurant,La Mami Acasă,https://www.lamamiacasa.ro/,12:00,17:00,44.3804044,26.1696326,1,1,1,0
restaurant,Wu Xing,https://www.wuxing.ro,10:00,22:00,44.4533643,26.065068,1,1,1,0
restaurant,Tóan's,http://www.toans.ro/,10:00,22:00,44.5103548,26.0866581,1,1,1,0
restaurant,Dristor Doner Kebap (Budapesta),https://instagram.com/dristordonerkebap?r=nametag,00:00,23:59,44.4168397,26.1039687,1,1,1,1
restaurant,Agapi Bistro,https://agapibistro.ro/,10:00,00:00,44.3801689,26.1635474,1,1,1,1
restaurant,Fabrica De Mancare,https://www.facebook.com/fabricademancareunirea/?locale=ro_RO,11:00,22:00,44.4271138,26.1059157,1,1,1,0
restaurant,Restaurant Casa Anca,https://casaanca72.ro/,10:00,23:00,44.4166333,26.1755253,1,1,1,0
restaurant,Vivo Fusion Food Bar,https://www.vivofoodbar.com/,12:00,22:00,44.479142,26.1022244,1,1,1,0
restaurant,Hanul Haiducilor,http://hanulhaiducilor.ro/,11:00,00:00,44.401373,26.1169722,1,1,1,1
restaurant,La Doi Frați,http://ladoifrati.ro/,12:00,00:00,44.5175969,26.2406252,1,1,1,1
restaurant,Trattoria per Tutti,https://www.facebook.com/trattoriapertutti/?locale=ro_RO,09:00,23:00,44.4262281,26.1236482,1,1,1,0
restaurant,Shift,http://www.shiftpub.ro,12:00,02:00,44.4449362,26.1016308,1,1,1,1
restaurant,Nussdorf,https://nussdorf.ro/?lang=ro,10:00,23:00,44.4101487,26.0777591,1,1,1,0
restaurant,Pizzeria La Strada,http://www.pizzalastrada.ro/,11:00,23:00,44.4257533,26.1449574,1,1,1,0
restaurant,Sabatini Pizza,https://www.sabatinipizza.ro/,10:00,22:00,44.4604883,26.1250352,1,1,1,0
restaurant,Maestro Pizza,https://bucuresti.pizzeriamaestro.ro/,09:00,22:00,44.4479982,26.1237901,1,1,1,0
restaurant,Restaurant Tuku,https://tukurestaurant.ro/,14:00,02:00,44.386754,26.1365081,0,0,1,1
restaurant,Beautyfood,http://www.beauty-food.ro/,10:00,22:00,44.4393713,26.1051152,1,1,1,0
restaurant,La Plăcinte,https://laplacinte.ro/,10:00,22:00,44.4799972,26.0922246,1,1,1,0
restaurant,Bistro Decan,https://bistrodecan.ro/?lang=ro,10:00,22:00,44.3689813,26.1471447,1,1,1,0
restaurant,Osteria Ciao Niki,http://www.osteriaciaoniki.ro/,09:00,22:00,44.4478086,26.1048694,1,1,1,0
restaurant,Upstairs Rooftop,https://www.upstairs.ro/,10:00,22:00,44.4497368,26.0856615,1,1,1,0
restaurant,Mazzaj,https://qrco.de/bfbMK7,12:00,00:00,44.411338,26.1191046,1,1,1,1
restaurant,El Bacha,https://elbacha.ro/,10:00,22:00,44.4246872,26.1296581,1,1,1,0
restaurant,Bun și Tot,http://www.bunsitot.ro,11:00,22:00,44.4616134,26.1014764,1,1,1,0
restaurant,Chocoloco,https://chocoloco.ro/,11:00,23:00,44.4656206,26.1056986,1,1,1,0
restaurant,Ciğeristan,https://cigeristan.ro/,08:00,01:00,44.4276957,26.1310425,1,1,1,1
restaurant,City Grill,https://citygrill.ro/ro,08:00,00:00,44.5058217,26.0895784,1,1,1,1
restaurant,City Grill,https://citygrill.ro/ro,08:00,00:00,44.4513306,26.0886589,1,1,1,1
restaurant,CIZ,https://www.instagram.com/cizwinebar/,17:00,22:00,44.4295037,26.1165231,0,1,1,0
restaurant,Belli Siciliani,https://www.bellisiciliani.eu/,12:00,00:00,44.4408915,26.1283439,1,1,1,1
restaurant,Conacul Românesc,https://conaculromanesc.ro/,12:00,22:00,44.4285721,26.1334992,1,1,1,0
restaurant,Costelaria,https://www.coaste.ro/,12:00,22:00,44.4216495,26.0872118,1,1,1,0
restaurant,Crosto Pizza,https://crostopizza.ro/,10:00,23:00,44.4136261,26.0331261,1,1,1,0
restaurant,Da Robert,http://pizzeriadarobert.ro/,12:00,23:00,44.3792232,26.1283679,1,1,1,0
restaurant,Borsalino,https://www.borsalino.ro/,12:00,00:00,44.4295457,26.103358,1,1,1,1
restaurant,Pâine și Vin,https://www.painesivin.ro/,12:00,20:00,44.4333624,26.09487,1,1,1,0
restaurant,DESCHIS Gastrobar,deschisgastrobar.ro,08:00,20:00,44.4117575,26.1185993,1,1,1,0
restaurant,Aubert,https://aubert-restaurant.ro/,08:00,20:00,44.3877983,26.1297659,1,1,1,0
restaurant,Restaurant LiVU,https://liwu.ro/,08:00,22:00,44.4313412,26.0787499,1,1,1,0
restaurant,DELiNOCE - Pizza,https://www.delinoce.ro/,11:00,23:00,44.4214142,26.11435,1,1,1,0
restaurant,Restaurant Burebista Traditional,https://www.restaurantburebistatraditional.ro/,10:00,23:00,44.4395737,26.1153862,1,1,1,0
restaurant,Die deutsche Kneipe,http://diedeutschekneipe.ro/,00:00,23:00,44.4539823,26.0968785,1,1,1,1
restaurant,Dodo Pizza,https://dodopizza.ro/,10:00,23:00,44.4350764,26.0342585,1,1,1,0
restaurant,Duman,https://dumanorientalcuisine.ro/,12:00,00:00,44.4300408,26.1348624,1,1,1,1
restaurant,E3 by Entourage,https://byentourage.ro/,11:00,01:00,44.4608482,26.1007579,1,1,1,1
restaurant,Efes,http://www.efesrestaurant.ro/,10:00,22:00,44.4203186,26.1162622,1,1,1,0
restaurant,Embassy Gallery,https://embassy-gallery.ro/,08:00,20:00,44.4455081,26.0995284,1,1,1,0
restaurant,Casa Oprescu,https://www.casaoprescu.ro/,11:00,23:00,44.4068228,26.1119989,1,1,1,0
restaurant,Elisa Bistro & Lounge,http://elisadinei.ro/,08:00,00:00,44.4773195,26.1625403,1,1,1,1
restaurant,Restaurant La Samuelle,http://www.la-samuelle.ro/,11:00,18:00,44.466012,26.0851361,1,1,1,0
restaurant,Unico Vero Pizza,http://www.unicovero.ro/,08:00,17:00,44.4437787,26.1092298,1,1,1,0
restaurant,Farine patisserie,https://farine-lepresaintgervais.com/,08:00,19:00,44.4596392,26.0998828,1,1,1,0
restaurant,Fayn,https://www.fayn.ro/,08:00,16:00,44.4795824,26.1018705,1,1,0,0
restaurant,Fior di Latte,http://www.fiordilatte.ro/,08:00,00:00,44.468061,26.089336,1,1,1,1
restaurant,Fratellini Bistro,https://fratellini.ro,09:00,22:00,44.472328,26.105734,1,1,1,0
restaurant,Fu Lin Men,https://fulinmen.metro.rest/,11:00,23:00,44.4289633,26.0369318,1,1,1,0
restaurant,Poesia,http://www.poesia.ro/,12:00,06:00,44.4672971,26.0874185,1,1,1,1
restaurant,Galeto,http://www.galeto.ro/,11:00,00:00,44.3875067,26.1113633,1,1,1,1
restaurant,Garden 4 Seasons,https://garden4seasons.eatbu.com/?lang=ro,10:00,00:00,44.3880432,26.1153601,1,1,1,1
restaurant,Sushi Terra japanese restaurant,https://sushi-terra.ro/,10:00,21:00,44.4570093,26.0966776,1,1,1,0
restaurant,Garden Pub,https://www.facebook.com/gardenpub1/,12:00,00:00,44.4700581,26.056204,1,1,1,1
restaurant,Gargantua KSLF,https://www.restaurantgargantua.ro/,09:00,00:00,44.4544432,26.0825428,1,1,1,1
restaurant,Poem,https://poemchocolat.ro/,14:00,12:00,44.4185926,26.0929126,1,0,1,1
restaurant,La Coana Mare,http://coanamare.ro/,08:00,22:00,44.492394,26.0808567,1,1,1,0
restaurant,Golazzo,https://golazzo.ro/,10:00,00:00,44.4275926,26.04799,1,1,1,1
restaurant,La Conu',http://www.laconu.ro/,08:00,22:00,44.4015141,26.0986569,1,1,1,0
restaurant,Gedo,https://m.facebook.com/pages/Gedo-Restaurant/152722378124732?locale=ro_RO,10:00,22:00,44.4453288,26.1227036,1,1,1,0
restaurant,Arc Bakery,https://arcbakery.ro/,10:00,22:00,44.4680407,26.0767286,1,1,1,0
restaurant,Graffiti Urban Food,http://www.graffitifoods.ro/,12:00,23:00,44.4328448,26.0700111,1,1,1,0
restaurant,Alouette,https://alouette.ro/,08:00,23:00,44.4252899,26.1024401,1,1,1,0
restaurant,Restaurant Miru & Laur,http://restaurantmirulaur.metro.rest/,11:00,23:00,44.3908107,26.1021853,1,1,1,0
restaurant,Greekos,http://www.sultanrestaurant.ro/index.php/en/,11:00,22:00,44.4295356,26.1394663,1,1,1,0
restaurant,Scala Food,https://www.facebook.com/Scala.Food/,08:00,22:00,44.444343,26.0873017,1,1,1,0
restaurant,Zaitoone,http://www.zaitoone.ro/,08:00,23:00,44.4757062,26.0927016,1,1,1,0
restaurant,Guri Guri,https://www.frufru.ro/,08:00,22:00,44.4784463,26.1150759,1,1,1,0
restaurant,le Parisien,https://www.facebook.com/leparisienbistrobar/,09:00,22:00,44.4524891,26.0495884,1,1,1,0
restaurant,Benihana,https://www.benihanainternational.com/locations/bucharest-romania/,12:00,15:00,44.4461375,26.0992696,1,1,0,0
restaurant,Gyros,https://www.gyrosthessalonikis.ro/,11:00,23:00,44.44218,26.1094144,1,1,1,0
restaurant,Gyros Thessalonikis,https://gyrosthessalonikis.ro/,09:00,02:00,44.3676563,26.1254257,1,1,1,1
restaurant,Casa Dante,http://www.restaurantcasadante.ro/,08:00,22:00,44.4181748,26.1599497,1,1,1,0
restaurant,Al Wady,https://www.alwady.ro/,11:00,22:00,44.430617,26.0523167,1,1,1,0
restaurant,High Life Bistro,http://www.high-life.ro/,10:00,23:00,44.4507157,26.088295,1,1,1,0
restaurant,Hushimo,https://www.facebook.com/hushimo.bucharest/,12:00,22:00,44.443477,26.0966905,1,1,1,0
restaurant,Restaurant-terasa La Mavro,http://www.lamavro.ro/,09:00,23:00,44.3924508,26.1155385,1,1,1,0
restaurant,Arco,http://arco.restaurant,08:00,16:00,44.4660194,26.0760393,1,1,0,0
restaurant,Zensushi Take Away,http://zensushibucuresti.ro/,07:00,19:00,44.4152809,26.1047759,1,1,1,0
restaurant,Pizza real delivery,https://www.pizzareal.ro/,10:00,22:00,44.4385807,26.00367,1,1,1,0
restaurant,IL Calcio,https://ilcalcio.ro/,12:00,23:00,44.4177505,26.0965367,1,1,1,0
restaurant,Il Cantuccio,https://www.ilcantuccio.ro/,09:00,23:00,44.4167252,26.0930862,1,1,1,0
restaurant,Imperial Turkish cuisine & steakhouse,https://imperial.ro/,12:00,22:00,44.4394035,26.1049099,1,1,1,0
restaurant,iMZA Fine Cuisine,https://imza.ro/,11:00,00:00,44.4611866,26.1010688,1,1,1,1
restaurant,Restaurant Margineni,https://restaurantmargineni.ro/,11:00,23:00,44.4652448,26.1489516,1,1,1,0
restaurant,Fasty Pizza,https://www.casapizza.ro/,19:00,00:00,44.3852782,26.1353714,0,0,1,1
restaurant,Arome,http://aromesisunete.ro/,10:00,22:00,44.4429545,26.0865609,1,1,1,0
restaurant,Trenta Pizza,http://www.trentapizza.ro/,10:00,22:00,44.4130598,26.1144512,1,1,1,0
restaurant,Ciccio Pizza,https://cicciopizza.ro/,10:00,22:00,44.4477853,26.0926026,1,1,1,0
restaurant,Story Pizza,http://www.story-pizza.ro/,10:00,22:00,44.4085378,26.0669526,1,1,1,0
restaurant,Restaurant Britannia,https://www.britanniarestaurant.ro/,07:00,20:00,44.4115645,26.068475,1,1,1,0
restaurant,Jerry's Pizza,https://www.jerryspizza.ro,09:00,22:00,44.3729798,26.1497012,1,1,1,0
restaurant,Mishi Mishi,https://www.facebook.com/Mishi0310699353,09:00,21:00,44.4416006,26.1521984,1,1,1,0
restaurant,Cucina di casa,https://www.cucinadicasa.ro/,12:00,00:00,44.4114457,26.1145224,1,1,1,1
restaurant,CAMIZO,https://www.camizo.ro,08:00,21:00,44.4214905,26.1702035,1,1,1,0
restaurant,Gotti,https://gottipizza.ro/,08:00,23:00,44.4536649,26.2061777,1,1,1,0
restaurant,Le Dôme,https://le-dome.ro/,10:00,22:00,44.4333814,26.1005799,1,1,1,0
restaurant,Japanos,https://japanos.ro/collections/all,12:00,22:00,44.4285197,26.1322025,1,1,1,0
restaurant,Japanos,https://japanos.ro/collections/all,12:00,22:00,44.442688,26.0298317,1,1,1,0
restaurant,Big John Food Lab,https://m.facebook.com/bigjohnfoodtruck/,12:00,00:00,44.4336562,26.1336535,1,1,1,1
restaurant,Argentin,https://argentin-restaurant.ro/,09:00,23:00,44.4323959,26.1019981,1,1,1,0
restaurant,Jazz Book Bistro,http://jazzbook.ro/,11:00,23:00,44.4305414,26.0749297,1,1,1,0
restaurant,XChef,https://www.xchef.ro/,12:00,00:00,44.4463145,26.0807373,1,1,1,1
restaurant,golden wok,http://golden-woks.ro/,11:00,20:00,44.47713,26.1799934,1,1,1,0
restaurant,Xclusive Grill & Crêpes,http://xclusivepub.ro/,11:00,23:00,44.4317805,26.0996543,1,1,1,0
restaurant,Trenta Pizza,https://www.trentapizza.ro,07:00,20:00,44.4311844,26.1295605,1,1,1,0
restaurant,Pow Wow,https://www.facebook.com/powwowcafe/,11:00,23:00,44.4419236,26.0949507,1,1,1,0
restaurant,Bistro GUXT,https://www.bistroguxt.com,10:00,23:00,44.437715,26.1174359,1,1,1,0
restaurant,Suento by Gram Bistro,https://suento.ro,08:00,16:00,44.4472081,26.11552,1,1,0,0
restaurant,Trifoiaș,https://www.facebook.com/trifoias.pizza,07:00,19:00,44.4117265,26.1050424,1,1,1,0
restaurant,Restaurant Home,https://www.restauranthome.ro/,08:00,23:00,44.4429494,26.1021502,1,1,1,0
restaurant,Jeunesse Bistro,https://m.facebook.com/jeunessebistro,10:00,16:00,44.4389898,26.107915,1,1,0,0
restaurant,Chocolat,https://www.chocolat.com.ro/,10:00,22:00,44.4419547,26.0972963,1,1,1,0
restaurant,Pokeful,https://www.pokeful.ro/,10:00,22:00,44.4595023,26.0959729,1,1,1,0
restaurant,Eat Up Bistro,https://www.facebook.com/eatupbistro/,10:00,23:00,44.4403838,26.0862679,1,1,1,0
restaurant,14th Lane,https://14thlane.ro/,07:00,18:00,44.4451421,26.0601357,1,1,1,0
restaurant,Old Habits,https://www.facebook.com/oldhabitsbucharest/,12:00,22:00,44.4317812,26.1010088,1,1,1,0
restaurant,Xclusive,https://xclusivepub.ro/,11:00,21:00,44.4318081,26.1008287,1,1,1,0
restaurant,District 42,https://distrikt42.ro/,09:00,22:00,44.4309205,26.099211,1,1,1,0
restaurant,Kanteen 162,https://www.facebook.com/Kanteen162-105664891539884,08:00,15:00,44.4327883,26.0979078,1,1,0,0
restaurant,Cinaș,http://restaurantcinas.ro/,08:00,16:00,44.4769978,26.0459522,1,1,0,0
restaurant,Trattoria Buongiorno,https://buongiornoitalian.ro/,08:00,16:00,44.5057599,26.0889223,1,1,0,0
restaurant,Taverna Covaci,https://www.taverna-covaci.ro/,08:00,16:00,44.4310835,26.1011454,1,1,0,0
restaurant,5ENSI,https://rb.gy/qkv1s,08:00,22:00,44.4539189,26.0870972,1,1,1,0
restaurant,Koko Loko,https://kokoloko.eu/,11:00,22:00,44.426062,26.0519722,1,1,1,0
restaurant,Kunnai,http://www.kunnai.ro/,12:00,22:00,44.464875,26.0607302,1,1,1,0
restaurant,Kvala,https://kvala.ro/meniu/,12:00,22:00,44.4316797,26.0727188,1,1,1,0
restaurant,Damascus Palace,https://damascus-palace.ro/,12:00,20:00,44.4332079,26.1533246,1,1,1,0
restaurant,L’Atelier,http://www.latelier-restaurant.ro/,12:00,22:00,44.4369205,26.0870381,1,1,1,0
restaurant,La Bottega dei Sapori,https://www.facebook.com/restaurantLaBottegadeiSapori/?locale=de_DE,12:00,23:00,44.4388386,26.066939,1,1,1,0
restaurant,Pizza Gili,https://www.facebook.com/pizzagili,09:00,21:00,44.4256262,26.1444802,1,1,1,0
restaurant,La Buni,https://m.facebook.com/pages/category/Restaurant/La-Buni-Restaurant-102095591264575/,11:00,22:00,44.3694003,26.1262421,1,1,1,0
restaurant,La Felinare,https://lafelinare.com/,10:00,00:00,44.4158752,26.0352418,1,1,1,1
restaurant,La Galette,https://lagalette.ro/,10:00,22:00,44.4755297,26.0700705,1,1,1,0
restaurant,Beyaz Restaurant,https://beyazrestaurant.ro/,00:00,23:59,44.477375,26.1626329,1,1,1,1
restaurant,La Gondola,http://www.restaurantkorean.ro/,12:00,22:00,44.4691205,26.0882978,1,1,1,0
restaurant,La Mahala,http://www.bodegalamahala.ro/,12:00,00:00,44.4306484,26.1017625,1,1,1,1
restaurant,La Mama,https://lamama.ro,09:00,22:00,44.4324387,26.1293881,1,1,1,0
restaurant,La Mama,https://lamama.ro,09:00,22:00,44.4348411,26.0994157,1,1,1,0
restaurant,La Mama,https://lamama.ro/,09:00,22:00,44.4454538,26.0625786,1,1,1,0
restaurant,La Moșu,http://www.restaurantlamosu.ro/,00:00,23:59,44.3883089,26.1345487,1,1,1,1
restaurant,La Nașu,http://www.lanasu.ro/,10:00,22:00,44.4529319,26.050003,1,1,1,0
restaurant,La Zavat,https://taverna-lazavat.ro/,12:00,22:00,44.4379652,26.1233324,1,1,1,0
restaurant,La Tartine,https://www.latartine.ro/,09:00,23:00,44.4305982,26.0736766,1,1,1,0
restaurant,Lente Lupu,http://www.lente.ro/,11:00,00:00,44.4444549,26.1011616,1,1,1,1
restaurant,Level Up,https://level-up-food.com/meniu/,12:00,23:00,44.4308607,26.1059275,1,1,1,0
restaurant,Kicen,http://kicen.ro/,07:00,20:00,44.431337,26.0791994,1,1,1,0
restaurant,Local 23,https://local23.ro/,12:00,00:00,44.3843072,26.101811,1,1,1,1
restaurant,18 Lounge,https://18lounge.ro/,10:00,21:00,44.4774536,26.0716135,1,1,1,0
restaurant,Lyst,https://restaurantlyst.ro/,10:00,03:00,44.3851512,26.1161493,1,1,1,1
restaurant,Mace,https://macebyjosephhadad.ro/,11:00,22:00,44.4411667,26.0980704,1,1,1,0
restaurant,Yoshi Restaurant,https://restaurantyoshi.ro/,10:00,21:00,44.4612879,26.1003935,1,1,1,0
restaurant,Machhapuchhre,https://machhapuchhre.ro/,11:00,23:00,44.4518825,26.0770395,1,1,1,0
restaurant,Pizza Hut,https://www.pizzahut.ro/homepage,11:00,23:00,44.441579,26.1520722,1,1,1,0
restaurant,Mahala Restaurant,https://www.restaurant-mahala.ro/,11:00,23:00,44.4218237,26.0876493,1,1,1,0
restaurant,Maher,https://maher-bucatariearabeasca.ro/,09:00,23:00,44.4462271,26.1095788,1,1,1,0
restaurant,Maison des Crêpes Aviatorilor,https://www.maisondescrepes.ro/,11:00,21:00,44.4654897,26.083857,1,1,1,0
restaurant,Komodo Lounge,https://www.facebook.com/people/Komodo-Lounge/61571472293950/?_rdr,10:00,22:00,44.4574799,26.1008015,1,1,1,0
restaurant,le Launch,https://lelunch.ro/,10:00,22:00,44.4399074,26.0869999,1,1,1,0
restaurant,Ciorbărie,https://www.ciorbarie.ro/,08:00,22:00,44.4510771,26.0988178,1,1,1,0
restaurant,Casa Românească,https://restaurantcasaromaneasca.ro/,10:00,22:00,44.4433171,26.0972071,1,1,1,0
restaurant,Zao,http://www.zaochinezesc.ro/,12:00,23:00,44.4180154,26.0963731,1,1,1,0
restaurant,Nor Sky Bar & Casual Restaurant,https://www.norbucharest.ro/,07:00,19:00,44.4779041,26.1047805,1,1,1,0
restaurant,Divan,http://thedivan.ro,07:00,15:00,44.4708218,26.1092302,1,1,0,0
restaurant,Manay Chinese Food,https://manay.ro/,10:00,21:00,44.4149917,26.0713526,1,1,1,0
restaurant,Rare House,https://rarehouse.metro.rest/,10:00,00:00,44.4425045,26.1074145,1,1,1,1
restaurant,Zen Sushi Nordului,http://www.zensushibucuresti.ro/,07:00,16:00,44.4814273,26.0918762,1,1,0,0
restaurant,Mamizza,https://www.instagram.com/amorerotondopizza,10:00,22:00,44.4518039,26.1057463,1,1,1,0
restaurant,Mandaloun,https://restaurant-mandaloun.ro/,12:00,00:00,44.4839786,26.0919559,1,1,1,1
restaurant,MAT,https://www.facebook.com/p/MAT-Restaurant-100063821520914/,12:00,22:00,44.444015,26.0954977,1,1,1,0
restaurant,La Cave de Bucarest,https://www.facebook.com/LaCaveDeBucarest/,10:00,22:00,44.4428759,26.0159263,1,1,1,0
restaurant,Pizza Hut,https://www.pizzahut.ro/homepage,07:00,16:00,44.5058855,26.0891836,1,1,0,0
restaurant,Osteria Zucca,https://osteriazucca.ro/meniu/,08:00,23:00,44.4401327,26.1046322,1,1,1,0
restaurant,Presto Pizza,https://www.presto-pizza.ro/,07:00,17:00,44.3706758,26.1484983,1,1,1,0
restaurant,Ted's Coffee Co.,https://www.tedscoffeecompany.com/,15:00,23:00,44.4482203,26.0995725,0,1,1,0
restaurant,Trattoria Mezzaluna,http://www.trattoria-mezzaluna.ro/,10:00,22:00,44.4503184,26.0987053,1,1,1,0
restaurant,Pasta del Popolo,https://delpopolo.ro/,07:00,19:00,44.4788923,26.0940226,1,1,1,0
restaurant,Japanos,https://japanos.ro/,19:00,00:00,44.4541913,26.0865789,0,0,1,1
restaurant,GastroLab,https://gastrolab.ro/,11:00,23:00,44.4540023,26.0869915,1,1,1,0
restaurant,Continental Bistro,https://grand-hotel-continental-bucuresti.continentalhotels.ro/restaurante,18:00,03:00,44.4369067,26.0979249,0,0,1,1
restaurant,Bucharest Garden,http://www.bucharestgarden.ro/,18:00,06:00,44.431884,26.1002832,1,0,1,1
restaurant,Beef Room,https://www.facebook.com/beefroom,20:00,05:00,44.4330026,26.1005796,0,0,1,1
restaurant,Gilda,https://gildamusiclounge.ro/,21:00,05:00,44.4318995,26.1012467,0,0,1,1
restaurant,Le Bab,https://www.lebab.ro/locations,12:00,02:00,44.4319994,26.0976253,1,1,1,1
restaurant,La Pecora Nera,https://ialoc.ro/restaurante-bucuresti/la-pecora-nera-rezervari-3041,08:00,20:00,44.4304323,26.0972626,1,1,1,0
restaurant,Restaurant Pekin,http://www.pekin.ro/,12:00,23:00,44.4329745,26.0984673,1,1,1,0
restaurant,Ev Don fusion,https://evdon-fusion.ro/,12:00,00:00,44.4461818,25.9874712,1,1,1,1
restaurant,Trenta Pizza,http://www.trentapizza.ro/,14:00,02:00,44.4462363,25.9879754,0,0,1,1
restaurant,Mignon,http://mignon-bistro.ro/,08:00,00:00,44.4490783,26.0838441,1,1,1,1
restaurant,iDracula,http://idracula.ro/,16:00,23:00,44.4311353,26.1006555,0,1,1,0
restaurant,Saidoun,https://www.facebook.com/Saidounrestaurant/,17:00,01:00,44.4914824,26.0871821,0,0,1,1
restaurant,Zarada,https://www.facebook.com/zaradarestaurant/,13:00,23:00,44.4914011,26.0877539,0,1,1,0
restaurant,Fabio Pizza,https://www.fabiopizza.ro/,09:00,02:00,44.4326314,26.1202498,1,1,1,1
restaurant,Wienerhaus,https://wienerhaus.ro/,12:00,03:00,44.4447667,26.1153321,1,1,1,1
restaurant,Restaurant Allucinante,https://allucinante.com/,08:00,21:00,44.4247242,26.0795436,1,1,1,0
restaurant,Nuba Winter,https://www.nuba.ro/winter,10:00,02:00,44.4876942,26.0881555,1,1,1,1
restaurant,TUYA Bucharest,http://www.tuya.ro/,12:00,00:00,44.47512,26.0897313,1,1,1,1
restaurant,Terasa IDM Club,http://www.idmclub.ro/,09:00,20:00,44.4429991,26.0489687,1,1,1,0
restaurant,Cooperativa FRUFRU Amzei,https://www.frufru.ro/,18:00,23:00,44.4435885,26.0966923,0,0,1,0
restaurant,Pizza Hub,https://pizzahub.ro/wp-content/uploads/2021/04/Pizza-Hub-menu-1.pdf,10:00,22:00,44.44213,26.0810633,1,1,1,0
restaurant,Mon Cher,https://websketch.ro/,08:00,05:00,44.4288651,26.1329333,1,1,1,1
restaurant,Mon Cheri,http://www.bistromoncheri.ro/,12:00,22:00,44.4594803,26.0967264,1,1,1,0
restaurant,Murad,https://restaurantmurad.ro/,10:00,23:00,44.4650131,26.0671128,1,1,1,0
restaurant,La Ciorbe,https://laciorbe.eatbu.com/,07:00,18:00,44.4341167,26.0009475,1,1,1,0
restaurant,Museum Restaurant,https://muzeul-satului.ro/servicii/hanul-la-bariera/,11:00,23:00,44.4324684,26.0744934,1,1,1,0
restaurant,Nadasan,https://nadasan.ro/,11:00,23:00,44.4842921,26.08922,1,1,1,0
restaurant,Martina Ristorante Pizzeria,http://martinaristorante.ro/,07:00,18:00,44.4301813,26.0994181,1,1,1,0
restaurant,Napoletan,http://www.napoletan.ro/,12:00,22:00,44.4582331,26.1313966,1,1,1,0
restaurant,Nikos Greek Taverna,https://www.nikosgreektaverna.ro/,11:00,22:00,44.432606,26.0522209,1,1,1,0
restaurant,Berăria Centrală,https://www.facebook.com/BerariaCentrala/,10:00,21:00,44.4242351,26.1183894,1,1,1,0
restaurant,Grandforno d'italy,https://m.facebook.com/grandfornoditaly/,11:00,21:00,44.3711089,26.1283876,1,1,1,0
restaurant,Nikos Greek Taverna Burebista,https://bucuresti.nikosgreektaverna.ro/,11:00,22:00,44.4240666,26.1295238,1,1,1,0
restaurant,Season Eclectic Cuisine,https://ialoc.ro/restaurante-bucuresti/season-eclectic-cuisine-rezervari-4238?experience=focus&source=google-card&ts=1,07:00,17:00,44.4333288,26.0981791,1,1,1,0
restaurant,Nikos Greek Taverna,https://ib.wikoti.com/instabook/bookings/52/ezxFS6z/selection,07:00,16:00,44.4302311,26.0978749,1,1,0,0
restaurant,Arogant,http://www.arogantlounge.ro/,07:00,17:00,44.4248296,26.128347,1,1,1,0
restaurant,Sfeir,https://sfeir.ro/,12:00,23:00,44.422456,26.1114084,1,1,1,0
restaurant,Noa Restoclub,https://noarestoclub.ro/,11:00,00:00,44.4336777,26.0982292,1,1,1,1
restaurant,Jarre,https://jarre.ro/,10:00,22:00,44.4180949,26.1146167,1,1,1,0
restaurant,Yasser,https://bucatarielibaneza.ro/AppMenu/,08:00,00:00,44.4179886,26.1146049,1,1,1,1
restaurant,Golden Woks,https://golden-woks.ro/,08:00,00:00,44.4178793,26.1145928,1,1,1,1
restaurant,Noel,https://restaurantnoel.metro.rest/,12:00,16:00,44.450123,26.0972558,1,1,0,0
restaurant,Pizza Hut,https://www.pizzahut.ro/,08:00,20:00,44.4199927,26.1266008,1,1,1,0
restaurant,Resto Aperto,https://www.restoaperto.ro/,10:00,22:00,44.4195057,26.1268368,1,1,1,0
restaurant,Toan's,http://www.toans.ro/,08:00,22:00,44.4334442,26.1007321,1,1,1,0
restaurant,Nobis,https://www.nobis-oldtown.ro/,10:00,22:00,44.4319254,26.0998918,1,1,1,0
restaurant,Nouva Plate,https://www.nuovaplate.ro/,08:00,23:00,44.4208102,26.1504411,1,1,1,0
restaurant,Greek tavern,http://www.greek-taverna.ro/,10:00,22:00,44.3826937,26.1186296,1,1,1,0
restaurant,Pizza Hut,https://www.pizzahut.ro/homepage,10:00,22:00,44.4280464,26.0349998,1,1,1,0
restaurant,Pizza Bonita,http://www.pizzabonita.ro,10:00,22:00,44.4285646,26.0344637,1,1,1,0
restaurant,Sara Green,http://www.saragreen.ro/,10:00,22:00,44.4799351,26.0995232,1,1,1,0
restaurant,Pizza Bonita,http://www.pizzabonita.ro/,10:00,22:00,44.4394934,25.9820847,1,1,1,0
restaurant,Novu,https://novu.ro/,10:00,22:00,44.5375834,26.0957173,1,1,1,0
restaurant,Lemon Bistro,https://lemonbistro.ro,08:00,17:00,44.3776605,26.1577324,1,1,1,0
restaurant,Oyster Bar by Taverna Racilor,https://tavernaracilor.ro,12:00,00:00,44.4358752,26.0960331,1,1,1,1
restaurant,Samsara (Delivery Only),https://www.samsaradelivery.ro/,08:00,00:00,44.4843532,26.1184589,1,1,1,1
restaurant,Garden8,https://www.garden8.ro/,08:00,17:00,44.4808115,26.1198312,1,1,1,0
restaurant,Panoramic,http://panoramicbeerandgrill.ro/,12:00,23:00,44.4474965,25.9962025,1,1,1,0
restaurant,Grano,https://grano.ro/,12:00,23:00,44.4609948,26.0981327,1,1,1,0
restaurant,Trattoria Sardegna,https://trattoriasardegna.ro/,11:00,22:00,44.4301169,26.1000597,1,1,1,0
restaurant,PengYou,https://pengyou.ro/,12:00,23:00,44.4338957,26.1199026,1,1,1,0
restaurant,Victoria Hub,http://victoriahub.ro/,08:00,22:00,44.4496617,26.0884046,1,1,1,0
restaurant,Alexa Garden,http://www.alexiagarden.ro/,17:00,01:00,44.4256991,26.0148068,0,0,1,1
restaurant,OXYA by Bamboo,https://oxya.ro,12:00,22:00,44.4677432,26.1175803,1,1,1,0
restaurant,Cantinetta,https://cucinaromana.ro/,08:00,22:00,44.4822057,26.1082544,1,1,1,0
restaurant,Mesogios Primaverii,https://www.mesogios.ro/,13:00,00:00,44.4704559,26.0894759,0,0,1,1
restaurant,PERU,http://www.perubistro.ro/contact.html,11:00,23:00,44.4683908,26.07173,1,1,1,0
restaurant,Csíki Sör,https://csikisor.hu/,08:00,00:00,44.4307523,26.1015119,1,1,1,1
restaurant,Ciorbe și Plăcinte,https://www.ciorbesiplacinte.ro/,16:00,02:00,44.4342333,26.0178959,0,0,1,1
restaurant,As Garden,https://www.asgarden.ro/,14:00,02:00,44.4334345,26.0301938,0,0,1,1
restaurant,NOD,https://www.nodurbanfood.ro/,12:00,22:00,44.3680695,26.1547643,1,1,1,0
restaurant,Padthai & Sushi,https://padthai.ro/,12:00,22:00,44.4277416,26.130765,1,1,1,0
restaurant,POT,https://www.potstories.ro/,12:00,22:00,44.4608857,26.1003457,1,1,1,0
restaurant,The Lobby,https://thelobbybucharest.ro/,13:00,23:00,44.4379228,26.0975818,0,1,1,0
restaurant,Stradale,https://stradale.ro/,08:00,21:00,44.4808188,26.1177969,1,1,1,0
restaurant,Maimuca,https://www.facebook.com/MaimucaRestaurant/,09:00,18:00,44.4355792,26.099098,1,1,1,0
restaurant,Alt Shift,http://www.altshift.ro/,12:00,00:00,44.4354527,26.0971789,1,1,1,1
restaurant,Preso Pizza,http://www.presto-pizza.ro/,10:00,22:00,44.446378,25.9868972,1,1,1,0
restaurant,Pizza Hut,https://www.pizzahut.ro/,11:00,23:00,44.4202574,26.149494,1,1,1,0
restaurant,Pizza Veneția,http://www.pizza-venetia.ro/,10:00,22:00,44.4267858,26.1350506,1,1,1,0
restaurant,Aria TNB,http://www.aria-tnb.ro/,12:00,22:00,44.4367203,26.1032151,1,1,1,0
restaurant,Trattoria L'Oroscopo,http://www.trattorialoroscopo.ro/,08:00,19:00,44.4256212,26.1026599,1,1,1,0
restaurant,Amore Rotondo Pizza,https://www.instagram.com/amorerotondopizza,10:00,22:00,44.4308965,26.1093782,1,1,1,0
restaurant,Trattoria Verdi,https://www.trattoriaverdi.ro/,10:00,22:00,44.4285038,26.1082873,1,1,1,0
restaurant,Noeme,https://www.noeme.ro/,10:00,22:00,44.427629,26.1152334,1,1,1,0
restaurant,Sushi Terra,https://sushi-terra.ro/,10:00,21:00,44.4521941,26.1299641,1,1,1,0
restaurant,Pizza Hut,https://www.pizzahut.ro/homepage,08:00,19:00,44.4394984,25.9823533,1,1,1,0
restaurant,SUMAC Lebanese Food Station,https://www.sumac.ro/ro,09:00,22:00,44.4462911,25.9865362,1,1,1,0
restaurant,Pizzeria Due Amici,https://www.pizza-buna.com/,12:00,21:00,44.4572923,26.1007886,1,1,1,0
restaurant,Pizzeria Margherita,https://pizzeriamargherita.ro/,11:00,21:00,44.4418622,26.14039,1,1,1,0
restaurant,Ciorbe și Plăcinte,https://ciorbesiplacinte.ro/meniu/,10:00,22:00,44.4152219,26.1047804,1,1,1,0
restaurant,nuba white,http://www.nuba.ro/,07:00,16:00,44.4751525,26.0901374,1,1,0,0
restaurant,Trenta Pizza,https://trentapizza.ro/,07:00,19:00,44.4806259,26.0436859,1,1,1,0
restaurant,Potcoava,http://www.restaurantpotcoava.ro/,12:00,00:00,44.456437,26.0546654,1,1,1,1
restaurant,Pui Pe Jar,http://www.puipejarbucuresti.ro/,10:00,20:00,44.4416222,26.1383042,1,1,1,0
restaurant,Chanh,https://chanhmiammiam.metro.rest/,09:00,21:00,44.4271942,26.0345036,1,1,1,0
restaurant,Q Marttinez,https://www.instagram.com/qmarttinezbucuresti/,12:00,22:00,44.4332504,26.0989741,1,1,1,0
restaurant,Sushi Bako,https://www.sushibako.ro/,10:00,23:00,44.5081802,26.0895418,1,1,1,0
